~Version Information
VERS .            2.00                          : CWLS Log ASCII Standard - Version 2.00
WRAP .            NO                            : One line per depth step
#
~Well Information
#MNEM.UNIT        DATA                          : DESCRIPTION
#----.----        ----                          : -----------
STRT .F             -3.6                        : Start
STOP .F           3345.9                        : Stop
STEP .F              0.5                        : Step increment
NULL .            -999.250                      : Null value
COMP .            ITB Oil, LLC.                 : Company
WELL .            Murphy #1                     : Well
FLD  .            South Johnson                 : Field
CTRY .            United States                 : State / Country
LOC  .            0375N 0330W NEc SW SW         : Location
LOC2 .            065407                        : Location 2
SRVC .            Weatherford                   : Service company
STAT .            USA / Illinois                : State
CNTY .            Clark                         : County
API  .                                          : API Number
LIC  .            065407                        : Licence Number
LATI .                                          : Latitude
LONG .                                          : Longitude
DATE .            10-Dec-2017                   : Logging Date
#
~Curve Information
#MNEM.UNIT        API CODES                     : CURVE DESCRIPTION
#----.----        ---------                     : -----------------
DEPT .F           00 001 00 00                  : Logged depth
CGXT .DEGF        30 660 01 00                  : MCG External Temperature
SMTU .LB          30 635 00 00                  : DST Uphole Tension
SPCG .MV          30 010 00 00                  : Spontaneous Potential
FEFE .OHMM        10 220 06 00                  : Shallow FE
NPRL .PERC        42 890 01 00                  : Limestone Neutron Por.
CLDC .IN          45 280 01 00                  : Density Caliper
DCOR .G/C3        42 356 01 00                  : Density Correction
DEN  .G/C3        42 350 01 00                  : Compensated Density
PDPE .B/E         45 358 01 00                  : PE
DPRL .PERC        45 890 10 00                  : Limestone Density Por.
XPOR .PERC        94 890 00 00                  : Crossplot Porosity
MNRL .OHMM        15 252 00 00                  : MMR MicroLog Normal
MINV .OHMM        15 250 00 00                  : MMR MicroLog Inverse
GGCE .GAPI        30 310 00 00                  : MCG BH Corrected Gamma
R30T .OHMM        07 120 44 00                  : Array Ind. Two Res 30
R40T .OHMM        07 120 44 00                  : Array Ind. Two Res 40
R60T .OHMM        07 120 44 00                  : Array Ind. Two Res 60
R85T .OHMM        07 120 44 00                  : Array Ind. Two Res 85
RTAT .OHMM        07 120 44 00                  : Array Ind. Two Res Rt
HVOL .F3          70 000 00 00                  : Hole Volume
AVOL .F3          70 000 00 00                  : Annular Volume
NPOR .PERC        42 890 04 00                  : Base Neutron Porosity
NPRS .PERC        42 890 03 00                  : Sandstone Neutron Por.
NPRD .PERC        42 890 02 00                  : Dolomite Neutron Por.
DPOR .PERC        45 890 13 00                  : Base Density Porosity
DPRS .PERC        45 890 12 00                  : Sandstone Density Por.
DPRD .PERC        45 890 11 00                  : Dolomite Density Por.
HDEN .G/C3        42 350 01 00                  : Vectar Processed Density
BIT  .IN          70 282 00 00                  : Bit size
#
~Parameter Information
#MNEM.UNIT        VALUE                         : DESCRIPTION
#----.----        -----                         : -----------
RNID .            5 Inch Main Pass              : Run ID
SON  .            2428-200147218                : Job Number
DREF .            KB                            : Depth reference
EREF .F               591.000                   : Elevation of depth reference
GL   .F               577.000                   : Ground elevation
DDRF .            Kelly Bushing                 : Drilling Depth Reference
RUN  .            One                           : Run number
TDD  .F              3344.000                   : TD (driller)
TDL  .F              3341.000                   : TD (logger)
BS   .IN                7.875                   : Bit size
TIMC .                                          : Time circulation ended
TIML .                                          : Time logger at bottom
UNIT .              13269                       : Equipment ID
BASE .            Flora                         : Equipment base location
ENG  .            Chad Skinner                  : Recording engineer
WIT  .            Doug Knierim                  : Witnessed by
CSGT .            Surface                       : Casing type
CSGS .IN                9.625                   : Casing size
CSGW .LB/FT            29.000                   : Casing weight
CSGD .F               184.000                   : Casing bottom (driller)
CSGL .F               182.000                   : Casing bottom (logger)
CSUP .F           -999999.000                   : Casing Stick Up GL
MUD  .            Chem Gel                      : Mud type
MUDS .            Flowline                      : Mud sample source
MUDD .LB/G              9.300                   : Mud density
MUDV .SEC              72.000                   : Mud viscosity
PH   .                  9.500                   : Mud pH
FL   .ML/30MIN          6.000                   : Mud fluid loss rate
RM   .OHMM              1.710                   : Mud resistivity
RMT  .DEGF             71.000                   : Mud sample temperature
RMF  .OHMM              1.280                   : Mud filtrate resistivity
RMFT .DEGF             71.000                   : Mud filtrate sample temperature
RMC  .OHMM              2.130                   : Mud cake resistivity
RMCT .DEGF             71.000                   : Mud cake sample temperature
RMBT .OHMM              1.240                   : Mud Resistivity at BHT
BHT  .DEGF             99.000                   : Bottom Hole Temperature
TMAX .DEGF             99.000                   : Max recorded temperature
#
~Other Information
-------------------------------------------------------------------------------------------------------------------------------------------------
WLS 17.03.9700
Toolstring: MCG, MMR, MDN (Dual Bowsprings), MPD (8" Profile Plate), MFE, MAI (Two 0.5" Standoffs)
All Intervals logged and scaled per client request.
Logging Speed as per client request.
Logging Matrix: Ran on Limestone 2.71 g/CC TD-1800, Sandstone 2.65 g/CC 1800-1750, Limestone 2.71 g/CC 1750-800, Sandstone 2.65 g/CC 800-Surface.
Annular hole volume from TD to surface casing with 5.5" production casing: 630 cu ft.     
Rig: LW #22
Crew: Dylan Jansen
Chlorides: 550
-------------------------------------------------------------------------------------------------------------------------------------------------
#
#          DEPT           CGXT           SMTU           SPCG           FEFE           NPRL           CLDC           DCOR           DEN            PDPE           DPRL           XPOR           MNRL           MINV           GGCE           R30T           R40T           R60T           R85T           RTAT           HVOL           AVOL           NPOR           NPRS           NPRD           DPOR           DPRS           DPRD           HDEN            BIT
#
~ASCII Log Data
# ...
         1562.4      88.716801     756.835938      13.238274      64.251251      10.397477       7.907389       0.029749       2.680526       3.660791       1.723632       9.258613      29.320129      39.638657      47.762758      56.872950      56.811653      56.154656      55.627869      55.354360       0.111888       0.057758      10.040656      15.414616       9.120470       1.723632      -1.850054      10.132305       2.678014       7.875000
         1562.9      88.636458     756.835938      13.229088      77.093571      10.436404       7.907550       0.029510       2.700666       3.821224       0.545828       9.081098      58.337122      89.563943      37.643602      59.508479      59.438587      58.831545      58.346368      58.093252       0.111892       0.057763      10.079011      15.460639       9.157103       0.545828      -3.070688       9.055275       2.717549       7.875000
         1563.4      88.622845     756.835938      13.580354      80.288894      10.149004       7.907646       0.029546       2.711830       3.786431      -0.107045       8.695054     256.123324     404.349482      35.979923      59.745718      59.670837      59.146231      58.728326      58.509211       0.111894       0.057764       9.796173      15.110823       8.885164      -0.107045      -3.747301       8.458264       2.732187       7.875000
         1563.9      88.632331     756.835938      14.254873      72.802046       9.712030       7.907561       0.029639       2.710627       3.737525      -0.036644       8.459696      86.139221      89.042220      41.030475      59.556366      59.478156      59.038800      58.690180      58.506423       0.111891       0.057761       9.366100      14.579997       8.471852      -0.036644      -3.674340       8.522641       2.720065       7.875000
         1564.4      88.678355     756.835938      15.228335      60.781240       9.404391       7.907561       0.030575       2.701706       3.766771       0.485016       8.288990      32.060086      43.580205      47.082731      53.285797      53.213189      52.892336      52.639845      52.505480       0.111893       0.057764       9.063342      14.207258       8.181017       0.485016      -3.133710       8.999668       2.695450       7.875000
         1564.9      88.656650     756.835938      16.469980      53.061390       9.390912       7.907797       0.031333       2.687924       3.799287       1.290991       8.373768      44.473247      60.217762      51.006642      45.698250      45.633519      45.420155      45.258863      45.171016       0.111900       0.057770       9.050142      14.192138       8.168455       1.290991      -2.298428       9.736681       2.681637       7.875000
         1565.4      88.716645     756.835938      17.852232      49.124457       9.633607       7.907994       0.032753       2.676182       3.711343       1.977675       8.658383      31.224111      41.232861      54.746700      42.864400      42.801819      42.657944      42.555913      42.499590       0.111904       0.057774       9.289083      14.488275       8.398205       1.977675      -1.586773      10.364613       2.677866       7.875000
         1565.9      88.659390     761.050781      19.137033      45.480247       9.957976       7.907988       0.034120       2.666830       3.527292       2.524572       8.994928      25.216834      34.587862      59.661349      40.961212      40.900595      40.814326      40.757997      40.726131       0.111903       0.057773       9.608385      14.882156       8.704986       2.524572      -1.019989      10.864715       2.669334       7.875000
         1566.4      88.689092     756.835938      20.064140      44.117216      10.291087       7.907953       0.033863       2.654345       3.392892       3.254704       9.362559      25.429235      36.191382      63.355860      39.184131      39.126438      39.091204      39.074134      39.063476       0.111903       0.057773       9.936270      15.285101       9.019803       3.254704      -0.263307      11.532377       2.658592       7.875000
         1566.9      88.729733     779.082031      20.838332      44.602080      10.589407       7.908000       0.032075       2.640293       3.336469       4.076456       9.714507      27.068897      40.779411      64.866572      38.739713      38.684167      38.695043      38.711221      38.720012       0.111905       0.057775      10.229920      15.645238       9.301632       4.076456       0.588327      12.283818       2.640102       7.875000
         1567.4      88.759374     756.835938      21.405904      45.177913      10.763428       7.908100       0.029420       2.628687       3.329508       4.755120       9.946849      29.323804      42.288624      65.251428      39.268290      39.215110      39.271097      39.316722      39.341957       0.111908       0.057778      10.401255      15.854633       9.465934       4.755120       1.291670      12.904415       2.620797       7.875000
         1567.9      88.781206     752.152344      21.934834      45.888019      10.752110       7.908165       0.026716       2.619965       3.374496       5.265208      10.004202      25.914901      37.028310      65.342530      40.161228      40.111309      40.212827      40.290343      40.333106       0.111910       0.057780      10.390184      15.840890       9.455229       5.265208       1.820306      13.370858       2.613001       7.875000
         1568.4      88.745589     751.953125      22.475563      46.670313      10.624042       7.908332       0.028240       2.622929       3.464282       5.091878       9.874867      28.561464      42.401563      65.443814      40.175589      40.131340      40.275325      40.385089      40.445792       0.111916       0.057786      10.264222      15.687030       9.334350       5.091878       1.640674      13.212360       2.615702       7.875000
         1568.9      88.711491     751.953125      22.880384      46.745323      10.547794       7.908584       0.029467       2.625653       3.536518       4.932574       9.790585      34.034674      51.287597      65.652619      39.729850      39.692479      39.875129      40.014250      40.091378       0.111923       0.057793      10.189278      15.595515       9.262395       4.932574       1.475576      13.066685       2.630174       7.875000
         1569.4      88.699541     754.546875      23.140369      45.884559      10.635114       7.908739       0.030061       2.626836       3.548220       4.863405       9.854280      28.863045      40.511231      64.950222      39.773862      39.743544      39.963959      40.131652      40.224862       0.111925       0.057795      10.275313      15.700244       9.344787       4.863405       1.403893      13.003435       2.638005       7.875000
         1569.9      88.664126     751.953125      23.458917      44.238703      10.858632       7.908776       0.029755       2.625479       3.476556       4.942725      10.050355      25.173018      37.212027      66.429413      38.558993      38.536821      38.784599      38.972845      39.077750       0.111926       0.057796      10.495379      15.968069       9.555656       4.942725       1.486097      13.075968       2.627920       7.875000
         1570.4      88.714056     754.781250      23.828870      42.590164      11.068503       7.908792       0.027260       2.619320       3.410970       5.302935      10.272003      29.287800      44.006358      69.781789      37.113143      37.098814      37.367269      37.570913      37.684689       0.111927       0.057797      10.701985      16.219097       9.753584       5.302935       1.859405      13.405358       2.615644       7.875000
         1570.9      88.666399     756.332031      24.264088      41.944588      11.252202       7.908846       0.023353       2.611212       3.449923       5.777094      10.487511      22.885881      30.651632      71.114964      37.201450      37.193773      37.490580      37.715362      37.841256       0.111928       0.057798      10.882819      16.437628       9.926656       5.777094       2.350807      13.838947       2.608536       7.875000
