~Version Information
VERS .            2.00                          : CWLS Log ASCII Standard - Version 2.00
WRAP .            NO                            : One line per depth step
#
~Well Information
#MNEM.UNIT        DATA                          : DESCRIPTION
#----.----        ----                          : -----------
STRT .F             -3.6                        : Start
STOP .F           3345.9                        : Stop
STEP .F              0.5                        : Step increment
NULL .            -999.250                      : Null value
COMP .            ITB Oil, LLC.                 : Company
WELL .            Murphy #1                     : Well
FLD  .            South Johnson                 : Field
CTRY .            United States                 : State / Country
LOC  .            0375N 0330W NEc SW SW         : Location
LOC2 .            065407                        : Location 2
SRVC .            Weatherford                   : Service company
STAT .            USA / Illinois                : State
CNTY .            Clark                         : County
API  .                                          : API Number
LIC  .            065407                        : Licence Number
LATI .                                          : Latitude
LONG .                                          : Longitude
DATE .            10-Dec-2017                   : Logging Date
#
~Curve Information
#MNEM.UNIT        API CODES                     : CURVE DESCRIPTION
#----.----        ---------                     : -----------------
DEPT .F           00 001 00 00                  : Logged depth
CGXT .DEGF        30 660 01 00                  : MCG External Temperature
SMTU .LB          30 635 00 00                  : DST Uphole Tension
SPCG .MV          30 010 00 00                  : Spontaneous Potential
FEFE .OHMM        10 220 06 00                  : Shallow FE
NPRL .PERC        42 890 01 00                  : Limestone Neutron Por.
CLDC .IN          45 280 01 00                  : Density Caliper
DCOR .G/C3        42 356 01 00                  : Density Correction
DEN  .G/C3        42 350 01 00                  : Compensated Density
PDPE .B/E         45 358 01 00                  : PE
DPRL .PERC        45 890 10 00                  : Limestone Density Por.
XPOR .PERC        94 890 00 00                  : Crossplot Porosity
MNRL .OHMM        15 252 00 00                  : MMR MicroLog Normal
MINV .OHMM        15 250 00 00                  : MMR MicroLog Inverse
GGCE .GAPI        30 310 00 00                  : MCG BH Corrected Gamma
R30T .OHMM        07 120 44 00                  : Array Ind. Two Res 30
R40T .OHMM        07 120 44 00                  : Array Ind. Two Res 40
R60T .OHMM        07 120 44 00                  : Array Ind. Two Res 60
R85T .OHMM        07 120 44 00                  : Array Ind. Two Res 85
RTAT .OHMM        07 120 44 00                  : Array Ind. Two Res Rt
HVOL .F3          70 000 00 00                  : Hole Volume
AVOL .F3          70 000 00 00                  : Annular Volume
NPOR .PERC        42 890 04 00                  : Base Neutron Porosity
NPRS .PERC        42 890 03 00                  : Sandstone Neutron Por.
NPRD .PERC        42 890 02 00                  : Dolomite Neutron Por.
DPOR .PERC        45 890 13 00                  : Base Density Porosity
DPRS .PERC        45 890 12 00                  : Sandstone Density Por.
DPRD .PERC        45 890 11 00                  : Dolomite Density Por.
HDEN .G/C3        42 350 01 00                  : Vectar Processed Density
BIT  .IN          70 282 00 00                  : Bit size
#
~Parameter Information
#MNEM.UNIT        VALUE                         : DESCRIPTION
#----.----        -----                         : -----------
RNID .            5 Inch Main Pass              : Run ID
SON  .            2428-200147218                : Job Number
DREF .            KB                            : Depth reference
EREF .F               591.000                   : Elevation of depth reference
GL   .F               577.000                   : Ground elevation
DDRF .            Kelly Bushing                 : Drilling Depth Reference
RUN  .            One                           : Run number
TDD  .F              3344.000                   : TD (driller)
TDL  .F              3341.000                   : TD (logger)
BS   .IN                7.875                   : Bit size
TIMC .                                          : Time circulation ended
TIML .                                          : Time logger at bottom
UNIT .              13269                       : Equipment ID
BASE .            Flora                         : Equipment base location
ENG  .            Chad Skinner                  : Recording engineer
WIT  .            Doug Knierim                  : Witnessed by
CSGT .            Surface                       : Casing type
CSGS .IN                9.625                   : Casing size
CSGW .LB/FT            29.000                   : Casing weight
CSGD .F               184.000                   : Casing bottom (driller)
CSGL .F               182.000                   : Casing bottom (logger)
CSUP .F           -999999.000                   : Casing Stick Up GL
MUD  .            Chem Gel                      : Mud type
MUDS .            Flowline                      : Mud sample source
MUDD .LB/G              9.300                   : Mud density
MUDV .SEC              72.000                   : Mud viscosity
PH   .                  9.500                   : Mud pH
FL   .ML/30MIN          6.000                   : Mud fluid loss rate
RM   .OHMM              1.710                   : Mud resistivity
RMT  .DEGF             71.000                   : Mud sample temperature
RMF  .OHMM              1.280                   : Mud filtrate resistivity
RMFT .DEGF             71.000                   : Mud filtrate sample temperature
RMC  .OHMM              2.130                   : Mud cake resistivity
RMCT .DEGF             71.000                   : Mud cake sample temperature
RMBT .OHMM              1.240                   : Mud Resistivity at BHT
BHT  .DEGF             99.000                   : Bottom Hole Temperature
TMAX .DEGF             99.000                   : Max recorded temperature
#
~Other Information
-------------------------------------------------------------------------------------------------------------------------------------------------
WLS 17.03.9700
Toolstring: MCG, MMR, MDN (Dual Bowsprings), MPD (8" Profile Plate), MFE, MAI (Two 0.5" Standoffs)
All Intervals logged and scaled per client request.
Logging Speed as per client request.
Logging Matrix: Ran on Limestone 2.71 g/CC TD-1800, Sandstone 2.65 g/CC 1800-1750, Limestone 2.71 g/CC 1750-800, Sandstone 2.65 g/CC 800-Surface.
Annular hole volume from TD to surface casing with 5.5" production casing: 630 cu ft.     
Rig: LW #22
Crew: Dylan Jansen
Chlorides: 550
-------------------------------------------------------------------------------------------------------------------------------------------------
#
#          DEPT           CGXT           SMTU           SPCG           FEFE           NPRL           CLDC           DCOR           DEN            PDPE           DPRL           XPOR           MNRL           MINV           GGCE           R30T           R40T           R60T           R85T           RTAT           HVOL           AVOL           NPOR           NPRS           NPRD           DPOR           DPRS           DPRD           HDEN            BIT
#
~ASCII Log Data
# ...
         2876.4      96.704610    1015.625000      29.420686      16.557769      19.155705       7.880911       0.030842       2.642242       3.219570       3.962466      14.811110       9.948965      13.236738     145.230247      11.817304      11.713095      11.862738      11.939345      11.994304       0.111138       0.057008      18.640588      25.271727      17.298881       3.962466       0.470192      12.179581       2.636988       7.875000
         2876.9      96.723325    1015.625000      29.091910      16.685790      19.097384       7.880863       0.029752       2.642126       3.266325       3.969247      14.786263       9.499296      12.993962     147.680224      11.886950      11.781239      11.929755      12.005577      12.060052       0.111137       0.057008      18.583147      25.211431      17.245029       3.969247       0.477220      12.185782       2.627748       7.875000
         2877.4      96.680680    1017.429687      29.079058      16.520520      19.326232       7.880881       0.030958       2.648514       3.317907       3.595668      14.732499       9.583898      12.901293     145.108684      11.706641      11.601522      11.745596      11.818908      11.871676       0.111138       0.057008      18.808319      25.452704      17.456803       3.595668       0.090056      11.844167       2.641989       7.875000
         2877.9      96.749306    1031.230469      29.098524      15.994062      19.545032       7.880837       0.033592       2.658452       3.411677       3.014495      14.583408       9.741606      12.208821     139.581012      11.263103      11.161004      11.297519      11.366728      11.416646       0.111136       0.057006      19.023619      25.683715      17.659313       3.014495      -0.512251      11.312720       2.664643       7.875000
         2878.4      96.720107    1029.835937      29.324205      15.273320      19.533107       7.880812       0.036379       2.668328       3.466442       2.436957      14.325754       9.030313      12.059763     136.437910      10.947063      10.847039      10.977898      11.043997      11.091772       0.111137       0.057007      19.011893      25.671918      17.648351       2.436957      -1.110790      10.784597       2.677964       7.875000
         2878.9      96.726946    1033.503906      29.714477      14.803259      19.562464       7.880933       0.036449       2.670784       3.456267       2.293324      14.277084       8.176363      12.883788     137.631084      10.739265      10.640593      10.767492      10.831367      10.877628       0.111140       0.057010      19.040802      25.702429      17.675476       2.293324      -1.259646      10.653253       2.677521       7.875000
         2879.4      96.679450    1049.531250      29.986879      14.830554      19.915460       7.880936       0.034876       2.666656       3.384999       2.534766      14.550840       8.822705      11.064145     138.119695      10.642483      10.544465      10.669186      10.731766      10.777177       0.111139       0.057009      19.388213      26.068584      18.001564       2.534766      -1.009425      10.874037       2.667382       7.875000
         2879.9      96.666171    1026.023437      30.349226      15.186708      20.328073       7.880874       0.031981       2.658222       3.299832       3.027950      14.962578       8.728672      11.127354     136.779180      10.726492      10.627719      10.752780      10.815355      10.860840       0.111138       0.057008      19.794271      26.495853      18.382651       3.027950      -0.498307      11.325024       2.657130       7.875000
         2880.4      96.730387    1025.390625      30.429011      15.544589      20.584690       7.880878       0.031515       2.654924       3.262686       3.220847      15.168879       8.913715      11.455731     134.148933      11.034993      10.933576      11.062000      11.126098      11.172765       0.111138       0.057008      20.046803      26.762207      18.619721       3.220847      -0.298395      11.501417       2.649051       7.875000
         2880.9      96.786411    1020.589844      30.606570      15.732871      20.749176       7.880897       0.032087       2.654509       3.275369       3.245077      15.257774       9.038073      11.024715     132.551183      11.138704      11.036566      11.166260      11.230812      11.277896       0.111138       0.057008      20.208674      26.932182      18.771611       3.245077      -0.273284      11.523573       2.651119       7.875000
         2881.4      96.733038    1025.390625      30.631947      15.755162      20.729443       7.880881       0.033610       2.658378       3.343909       3.018859      15.149847       9.377495      12.282047     133.736233      11.108678      11.006968      11.136667      11.201009      11.248046       0.111137       0.057008      20.189243      26.910324      18.753256       3.018859      -0.507728      11.316711       2.656566       7.875000
         2881.9      96.759534    1025.238281      30.520364      15.634471      20.352188       7.880835       0.033365       2.658783       3.408109       2.995157      14.959784       9.016209      11.538275     137.432535      11.035998      10.934958      11.064371      11.128321      11.175196       0.111136       0.057006      19.817969      26.513273      18.404209       2.995157      -0.532292      11.295036       2.665568       7.875000
         2882.4      96.758499    1023.218750      30.294036      15.404027      19.642769       7.880745       0.031232       2.656085       3.423124       3.152921      14.690383       8.673615      11.249204     140.645115      10.873710      10.773974      10.902304      10.965425      11.011842       0.111133       0.057003      19.119793      25.768860      17.748035       3.152921      -0.368791      11.439302       2.665778       7.875000
         2882.9      96.748358    1044.777344      30.172020      15.145436      19.196061       7.880650       0.026352       2.648078       3.364456       3.621181      14.681552       8.782829      11.338196     143.952460      10.620244      10.522575      10.649002      10.710851      10.756505       0.111131       0.057001      18.680143      25.303042      17.335138       3.621181       0.116497      11.867498       2.649742       7.875000
         2883.4      96.797691    1004.000000      30.347109      14.860974      19.905769       7.880668       0.021738       2.639577       3.291005       4.118292      15.236326       8.706433      11.148046     145.847991      10.360553      10.265092      10.389826      10.450486      10.495451       0.111132       0.057002      19.378595      26.032535      17.990234       4.118292       0.631684      12.322074       2.631990       7.875000
         2883.9      96.754311    1036.312500      30.678255      14.499355      21.509654       7.880694       0.019370       2.634301       3.272158       4.426836      16.133719       8.020564      10.062803     149.645941      10.054807       9.962175      10.084984      10.144337      10.188529       0.111132       0.057002      20.957080      27.678676      19.470521       4.426836       0.951448      12.604219       2.624623       7.875000
         2884.4      96.836336    1013.921875      30.941268      14.086597      22.975926       7.880655       0.020776       2.635799       3.296185       4.339239      16.792191       7.938388      10.026358     154.966931       9.741222       9.651799       9.773035       9.831266       9.874821       0.111130       0.057000      22.400123      29.173884      20.822968       4.339239       0.860666      12.524117       2.634905       7.875000
         2884.9      96.749004    1030.273438      30.911368      13.747202      23.668919       7.880499       0.023459       2.638146       3.310425       4.202008      17.061560       6.780069       8.999823     157.577351       9.474513       9.388198       9.508893       9.566533       9.609835       0.111125       0.056995      23.082011      29.874684      21.461644       4.202008       0.718445      12.398628       2.645128       7.875000
