~Version Information
VERS .            2.00                          : CWLS Log ASCII Standard - Version 2.00
WRAP .            NO                            : One line per depth step
#
~Well Information
#MNEM.UNIT        DATA                          : DESCRIPTION
#----.----        ----                          : -----------
STRT .F             -3.6                        : Start
STOP .F           3345.9                        : Stop
STEP .F              0.5                        : Step increment
NULL .            -999.250                      : Null value
COMP .            ITB Oil, LLC.                 : Company
WELL .            Murphy #1                     : Well
FLD  .            South Johnson                 : Field
CTRY .            United States                 : State / Country
LOC  .            0375N 0330W NEc SW SW         : Location
LOC2 .            065407                        : Location 2
SRVC .            Weatherford                   : Service company
STAT .            USA / Illinois                : State
CNTY .            Clark                         : County
API  .                                          : API Number
LIC  .            065407                        : Licence Number
LATI .                                          : Latitude
LONG .                                          : Longitude
DATE .            10-Dec-2017                   : Logging Date
#
~Curve Information
#MNEM.UNIT        API CODES                     : CURVE DESCRIPTION
#----.----        ---------                     : -----------------
DEPT .F           00 001 00 00                  : Logged depth
CGXT .DEGF        30 660 01 00                  : MCG External Temperature
SMTU .LB          30 635 00 00                  : DST Uphole Tension
SPCG .MV          30 010 00 00                  : Spontaneous Potential
FEFE .OHMM        10 220 06 00                  : Shallow FE
NPRL .PERC        42 890 01 00                  : Limestone Neutron Por.
CLDC .IN          45 280 01 00                  : Density Caliper
DCOR .G/C3        42 356 01 00                  : Density Correction
DEN  .G/C3        42 350 01 00                  : Compensated Density
PDPE .B/E         45 358 01 00                  : PE
DPRL .PERC        45 890 10 00                  : Limestone Density Por.
XPOR .PERC        94 890 00 00                  : Crossplot Porosity
MNRL .OHMM        15 252 00 00                  : MMR MicroLog Normal
MINV .OHMM        15 250 00 00                  : MMR MicroLog Inverse
GGCE .GAPI        30 310 00 00                  : MCG BH Corrected Gamma
R30T .OHMM        07 120 44 00                  : Array Ind. Two Res 30
R40T .OHMM        07 120 44 00                  : Array Ind. Two Res 40
R60T .OHMM        07 120 44 00                  : Array Ind. Two Res 60
R85T .OHMM        07 120 44 00                  : Array Ind. Two Res 85
RTAT .OHMM        07 120 44 00                  : Array Ind. Two Res Rt
HVOL .F3          70 000 00 00                  : Hole Volume
AVOL .F3          70 000 00 00                  : Annular Volume
NPOR .PERC        42 890 04 00                  : Base Neutron Porosity
NPRS .PERC        42 890 03 00                  : Sandstone Neutron Por.
NPRD .PERC        42 890 02 00                  : Dolomite Neutron Por.
DPOR .PERC        45 890 13 00                  : Base Density Porosity
DPRS .PERC        45 890 12 00                  : Sandstone Density Por.
DPRD .PERC        45 890 11 00                  : Dolomite Density Por.
HDEN .G/C3        42 350 01 00                  : Vectar Processed Density
BIT  .IN          70 282 00 00                  : Bit size
#
~Parameter Information
#MNEM.UNIT        VALUE                         : DESCRIPTION
#----.----        -----                         : -----------
RNID .            5 Inch Main Pass              : Run ID
SON  .            2428-200147218                : Job Number
DREF .            KB                            : Depth reference
EREF .F               591.000                   : Elevation of depth reference
GL   .F               577.000                   : Ground elevation
DDRF .            Kelly Bushing                 : Drilling Depth Reference
RUN  .            One                           : Run number
TDD  .F              3344.000                   : TD (driller)
TDL  .F              3341.000                   : TD (logger)
BS   .IN                7.875                   : Bit size
TIMC .                                          : Time circulation ended
TIML .                                          : Time logger at bottom
UNIT .              13269                       : Equipment ID
BASE .            Flora                         : Equipment base location
ENG  .            Chad Skinner                  : Recording engineer
WIT  .            Doug Knierim                  : Witnessed by
CSGT .            Surface                       : Casing type
CSGS .IN                9.625                   : Casing size
CSGW .LB/FT            29.000                   : Casing weight
CSGD .F               184.000                   : Casing bottom (driller)
CSGL .F               182.000                   : Casing bottom (logger)
CSUP .F           -999999.000                   : Casing Stick Up GL
MUD  .            Chem Gel                      : Mud type
MUDS .            Flowline                      : Mud sample source
MUDD .LB/G              9.300                   : Mud density
MUDV .SEC              72.000                   : Mud viscosity
PH   .                  9.500                   : Mud pH
FL   .ML/30MIN          6.000                   : Mud fluid loss rate
RM   .OHMM              1.710                   : Mud resistivity
RMT  .DEGF             71.000                   : Mud sample temperature
RMF  .OHMM              1.280                   : Mud filtrate resistivity
RMFT .DEGF             71.000                   : Mud filtrate sample temperature
RMC  .OHMM              2.130                   : Mud cake resistivity
RMCT .DEGF             71.000                   : Mud cake sample temperature
RMBT .OHMM              1.240                   : Mud Resistivity at BHT
BHT  .DEGF             99.000                   : Bottom Hole Temperature
TMAX .DEGF             99.000                   : Max recorded temperature
#
~Other Information
-------------------------------------------------------------------------------------------------------------------------------------------------
WLS 17.03.9700
Toolstring: MCG, MMR, MDN (Dual Bowsprings), MPD (8" Profile Plate), MFE, MAI (Two 0.5" Standoffs)
All Intervals logged and scaled per client request.
Logging Speed as per client request.
Logging Matrix: Ran on Limestone 2.71 g/CC TD-1800, Sandstone 2.65 g/CC 1800-1750, Limestone 2.71 g/CC 1750-800, Sandstone 2.65 g/CC 800-Surface.
Annular hole volume from TD to surface casing with 5.5" production casing: 630 cu ft.     
Rig: LW #22
Crew: Dylan Jansen
Chlorides: 550
-------------------------------------------------------------------------------------------------------------------------------------------------
#
#          DEPT           CGXT           SMTU           SPCG           FEFE           NPRL           CLDC           DCOR           DEN            PDPE           DPRL           XPOR           MNRL           MINV           GGCE           R30T           R40T           R60T           R85T           RTAT           HVOL           AVOL           NPOR           NPRS           NPRD           DPOR           DPRS           DPRD           HDEN            BIT
#
~ASCII Log Data
# ...
         1130.4      86.264922     642.289063     -77.630912     106.277614      12.108265       8.529916       0.034417       2.494310       4.680396      12.613469      12.408638      19.111771      13.760224      10.816597      33.298513      29.132092      26.215045      25.389528      25.008975       0.130207       0.076077      12.124804      17.446657      10.731876      12.613469       9.435777      20.090392       2.481673       7.875000
         1130.9      86.222056     639.648438     -77.523534     110.598281      11.714271       8.530871       0.035119       2.497168       4.742802      12.446327      12.146980      19.640864      14.015610      10.519367      33.236666      29.099861      26.228191      25.419870      25.048361       0.130234       0.076104      11.731604      16.980003      10.360958      12.446327       9.262557      19.937550       2.493147       7.875000
         1131.4      86.254316     642.054688     -77.419412     116.408243      11.087955       8.531594       0.036157       2.502324       4.762909      12.144789      11.705981      19.771633      13.947582      10.719313      33.765835      29.584773      26.707977      25.902533      25.533366       0.130256       0.076126      11.105052      16.236433       9.771077      12.144789       8.950054      19.661812       2.510808       7.875000
         1131.9      86.200388     639.343750     -77.373374     120.169720      10.612796       8.532322       0.036839       2.505798       4.738156      11.941623      11.383929      19.532292      13.995907      10.914258      34.302110      30.076452      27.194999      26.392537      26.025707       0.130276       0.076146      10.629670      15.671589       9.323455      11.941623       8.739500      19.476028       2.516181       7.875000
         1132.4      86.207170     632.593750     -77.299929     122.229874      10.635991       8.532767       0.036409       2.505060       4.762917      11.984778      11.419397      19.589010      13.968165      11.490122      34.578209      30.340359      27.476532      26.683019      26.321088       0.130285       0.076155      10.653147      15.699495       9.345355      11.984778       8.784225      19.515492       2.505370       7.875000
         1132.9      86.181686     640.808594     -77.304118     123.294392      10.973854       8.532836       0.035200       2.501558       4.849050      12.189606      11.684654      19.588812      13.979216      12.496922      34.443773      30.244428      27.431749      26.656201      26.303164       0.130287       0.076157      10.991605      16.102984       9.663902      12.189606       8.996500      19.702795       2.494426       7.875000
         1133.4      86.251117     657.242188     -77.328313     123.143661      11.235764       8.532868       0.033630       2.496075       4.906730      12.510206      11.986272      19.679383      14.845789      12.969789      34.279282      30.122164      27.361545      26.603733      26.259288       0.130287       0.076157      11.253916      16.416202       9.910900      12.510206       9.328759      19.995964       2.495663       7.875000
         1133.9      86.213054     629.882813     -77.337999     121.624147      11.252523       8.532842       0.033329       2.493015       4.891621      12.689168      12.100827      19.571771      14.766650      13.944624      34.075410      29.965515      27.258276      26.518108      26.182066       0.130286       0.076156      11.270718      16.436885       9.926797      12.689168       9.514228      20.159613       2.496832       7.875000
         1134.4      86.259700     629.882813     -77.488211     118.755493      11.168722       8.532877       0.032443       2.488041       4.851970      12.980033      12.241832      19.807385      14.834980      14.568632      33.464839      29.451088      26.826323      26.111098      25.786555       0.130289       0.076159      11.186831      16.337612       9.847905      12.980033       9.815671      20.425591       2.491222       7.875000
         1134.9      86.260681     629.882813     -77.667629     115.837656      11.218118       8.532968       0.030800       2.481053       4.870594      13.388732      12.511835      19.934926      14.803364      15.122247      32.952537      29.023090      26.469347      25.775275      25.460337       0.130290       0.076160      11.236312      16.396346       9.894438      13.388732      10.239231      20.799322       2.483500       7.875000
         1135.4      86.245894     629.882813     -77.865714     113.816520      11.464047       8.532933       0.029208       2.475460       4.877069      13.715810      12.814921      19.927984      14.579429      15.955438      32.833255      28.941284      26.423737      25.740589      25.430408       0.130290       0.076160      11.482567      16.687949      10.126005      13.715810      10.578202      21.098414       2.469629       7.875000
         1135.9      86.292805     622.296875     -78.093030     114.045654      11.702634       8.532964       0.027369       2.471392       4.812010      13.953676      13.060143      19.791831      14.181161      15.102524      33.101152      29.201205      26.686099      26.004009      25.693939       0.130291       0.076161      11.721461      16.970556      10.350618      13.953676      10.824718      21.315928       2.464735       7.875000
         1136.4      86.193509     626.234375     -78.280370     117.967693      11.656449       8.533037       0.026630       2.472407       4.710504      13.894308      13.004430      20.326749      13.225298      14.049704      33.926642      29.953308      27.394002      26.699610      26.383408       0.130292       0.076162      11.675221      16.915131      10.307037      13.894308      10.763192      21.261640       2.469180       7.875000
         1136.9      86.287698     627.234375     -78.418652     124.224678      11.352460       8.532996       0.026871       2.477810       4.687787      13.578348      12.684048      20.470066      13.168492      12.965551      35.188546      31.090589      28.449854      27.732418      27.405054       0.130292       0.076162      11.370855      16.554031      10.020707      13.578348      10.435743      20.972715       2.477844       7.875000
         1137.4      86.294472     620.117188     -78.510895     130.208435      10.979800       8.533022       0.027418       2.485004       4.771606      13.157679      12.270821      20.593560      13.158773      12.731749      36.370871      32.156206      29.435423      28.694767      28.356053       0.130293       0.076163      10.997733      16.111352       9.669691      13.157679       9.999776      20.588038       2.486112       7.875000
         1137.9      86.210272     626.558594     -78.662266     133.167747      10.667998       8.533117       0.029558       2.494886       4.882124      12.579754      11.788794      20.387237      12.857455      13.851728      37.161007      32.871809      30.095397      29.337813      28.990593       0.130296       0.076166      10.685535      15.739510       9.375791      12.579754       9.400836      20.059562       2.490897       7.875000
         1138.4      86.252800     629.882813     -78.715626     133.373443      10.499056       8.533180       0.032441       2.503827       4.918313      12.056883      11.403583      20.310850      12.946117      15.025006      37.619461      33.290387      30.479078      29.710232      29.357270       0.130297       0.076167      10.516380      15.537011       9.216400      12.056883       8.858952      19.581428       2.504866       7.875000
         1138.9      86.299438     631.675781     -78.708183     133.979158      10.421018       8.533227       0.035210       2.508828       4.858851      11.764430      11.196954      20.287603      12.762593      14.939038      37.916904      33.562187      30.724619      29.947180      29.590012       0.130299       0.076169      10.438258      15.443209       9.142737      11.764430       8.555865      19.313998       2.517998       7.875000
