~Version Information
VERS .            2.00                          : CWLS Log ASCII Standard - Version 2.00
WRAP .            NO                            : One line per depth step
#
~Well Information
#MNEM.UNIT        DATA                          : DESCRIPTION
#----.----        ----                          : -----------
STRT .F             -3.6                        : Start
STOP .F           3345.9                        : Stop
STEP .F              0.5                        : Step increment
NULL .            -999.250                      : Null value
COMP .            ITB Oil, LLC.                 : Company
WELL .            Murphy #1                     : Well
FLD  .            South Johnson                 : Field
CTRY .            United States                 : State / Country
LOC  .            0375N 0330W NEc SW SW         : Location
LOC2 .            065407                        : Location 2
SRVC .            Weatherford                   : Service company
STAT .            USA / Illinois                : State
CNTY .            Clark                         : County
API  .                                          : API Number
LIC  .            065407                        : Licence Number
LATI .                                          : Latitude
LONG .                                          : Longitude
DATE .            10-Dec-2017                   : Logging Date
#
~Curve Information
#MNEM.UNIT        API CODES                     : CURVE DESCRIPTION
#----.----        ---------                     : -----------------
DEPT .F           00 001 00 00                  : Logged depth
CGXT .DEGF        30 660 01 00                  : MCG External Temperature
SMTU .LB          30 635 00 00                  : DST Uphole Tension
SPCG .MV          30 010 00 00                  : Spontaneous Potential
FEFE .OHMM        10 220 06 00                  : Shallow FE
NPRL .PERC        42 890 01 00                  : Limestone Neutron Por.
CLDC .IN          45 280 01 00                  : Density Caliper
DCOR .G/C3        42 356 01 00                  : Density Correction
DEN  .G/C3        42 350 01 00                  : Compensated Density
PDPE .B/E         45 358 01 00                  : PE
DPRL .PERC        45 890 10 00                  : Limestone Density Por.
XPOR .PERC        94 890 00 00                  : Crossplot Porosity
MNRL .OHMM        15 252 00 00                  : MMR MicroLog Normal
MINV .OHMM        15 250 00 00                  : MMR MicroLog Inverse
GGCE .GAPI        30 310 00 00                  : MCG BH Corrected Gamma
R30T .OHMM        07 120 44 00                  : Array Ind. Two Res 30
R40T .OHMM        07 120 44 00                  : Array Ind. Two Res 40
R60T .OHMM        07 120 44 00                  : Array Ind. Two Res 60
R85T .OHMM        07 120 44 00                  : Array Ind. Two Res 85
RTAT .OHMM        07 120 44 00                  : Array Ind. Two Res Rt
HVOL .F3          70 000 00 00                  : Hole Volume
AVOL .F3          70 000 00 00                  : Annular Volume
NPOR .PERC        42 890 04 00                  : Base Neutron Porosity
NPRS .PERC        42 890 03 00                  : Sandstone Neutron Por.
NPRD .PERC        42 890 02 00                  : Dolomite Neutron Por.
DPOR .PERC        45 890 13 00                  : Base Density Porosity
DPRS .PERC        45 890 12 00                  : Sandstone Density Por.
DPRD .PERC        45 890 11 00                  : Dolomite Density Por.
HDEN .G/C3        42 350 01 00                  : Vectar Processed Density
BIT  .IN          70 282 00 00                  : Bit size
#
~Parameter Information
#MNEM.UNIT        VALUE                         : DESCRIPTION
#----.----        -----                         : -----------
RNID .            5 Inch Main Pass              : Run ID
SON  .            2428-200147218                : Job Number
DREF .            KB                            : Depth reference
EREF .F               591.000                   : Elevation of depth reference
GL   .F               577.000                   : Ground elevation
DDRF .            Kelly Bushing                 : Drilling Depth Reference
RUN  .            One                           : Run number
TDD  .F              3344.000                   : TD (driller)
TDL  .F              3341.000                   : TD (logger)
BS   .IN                7.875                   : Bit size
TIMC .                                          : Time circulation ended
TIML .                                          : Time logger at bottom
UNIT .              13269                       : Equipment ID
BASE .            Flora                         : Equipment base location
ENG  .            Chad Skinner                  : Recording engineer
WIT  .            Doug Knierim                  : Witnessed by
CSGT .            Surface                       : Casing type
CSGS .IN                9.625                   : Casing size
CSGW .LB/FT            29.000                   : Casing weight
CSGD .F               184.000                   : Casing bottom (driller)
CSGL .F               182.000                   : Casing bottom (logger)
CSUP .F           -999999.000                   : Casing Stick Up GL
MUD  .            Chem Gel                      : Mud type
MUDS .            Flowline                      : Mud sample source
MUDD .LB/G              9.300                   : Mud density
MUDV .SEC              72.000                   : Mud viscosity
PH   .                  9.500                   : Mud pH
FL   .ML/30MIN          6.000                   : Mud fluid loss rate
RM   .OHMM              1.710                   : Mud resistivity
RMT  .DEGF             71.000                   : Mud sample temperature
RMF  .OHMM              1.280                   : Mud filtrate resistivity
RMFT .DEGF             71.000                   : Mud filtrate sample temperature
RMC  .OHMM              2.130                   : Mud cake resistivity
RMCT .DEGF             71.000                   : Mud cake sample temperature
RMBT .OHMM              1.240                   : Mud Resistivity at BHT
BHT  .DEGF             99.000                   : Bottom Hole Temperature
TMAX .DEGF             99.000                   : Max recorded temperature
#
~Other Information
-------------------------------------------------------------------------------------------------------------------------------------------------
WLS 17.03.9700
Toolstring: MCG, MMR, MDN (Dual Bowsprings), MPD (8" Profile Plate), MFE, MAI (Two 0.5" Standoffs)
All Intervals logged and scaled per client request.
Logging Speed as per client request.
Logging Matrix: Ran on Limestone 2.71 g/CC TD-1800, Sandstone 2.65 g/CC 1800-1750, Limestone 2.71 g/CC 1750-800, Sandstone 2.65 g/CC 800-Surface.
Annular hole volume from TD to surface casing with 5.5" production casing: 630 cu ft.     
Rig: LW #22
Crew: Dylan Jansen
Chlorides: 550
-------------------------------------------------------------------------------------------------------------------------------------------------
#
#          DEPT           CGXT           SMTU           SPCG           FEFE           NPRL           CLDC           DCOR           DEN            PDPE           DPRL           XPOR           MNRL           MINV           GGCE           R30T           R40T           R60T           R85T           RTAT           HVOL           AVOL           NPOR           NPRS           NPRD           DPOR           DPRS           DPRD           HDEN            BIT
#
~ASCII Log Data
# ...
         1346.4      86.958547     674.671875     -70.620560      87.164323      12.706072       7.889002       0.037369       2.508198       4.433554      11.801315      12.565805      23.677810      16.297270      10.795500      14.704398      12.718829      11.536737      11.257614      11.151677       0.111308       0.057178      12.299616      18.141537      11.292828      11.801315       8.594090      19.347726       2.505579       7.875000
         1346.9      86.964609     673.828125     -70.770087      87.056878      12.901957       7.883219       0.040116       2.508219       4.401859      11.800030      12.729864      23.821747      16.299173      10.595595      14.551064      12.556708      11.373147      11.094759      10.989553       0.111194       0.057064      12.491320      18.371290      11.476921      11.800030       8.592759      19.346552       2.513058       7.875000
         1347.4      87.002921     673.828125     -70.815218      87.704355      12.721943       7.883702       0.044235       2.509755       4.358512      11.710230      12.565205      23.653241      16.319827      10.568723      14.422822      12.420570      11.236669      10.959351      10.855011       0.111279       0.057149      12.314982      18.162365      11.308050      11.710230       8.499693      19.264435       2.513319       7.875000
         1347.9      86.992155     673.828125     -70.812026      88.331892      12.531002       7.891303       0.047698       2.508243       4.344498      11.798658      12.418372      23.449547      16.355833      10.827459      14.250651      12.251780      11.074522      10.799930      10.697069       0.111527       0.057397      12.131005      17.940458      11.128886      11.798658       8.591336      19.345297       2.507615       7.875000
         1348.4      87.004953     669.320312     -70.745860      87.666654      12.662636       7.901605       0.051147       2.507561       4.348340      11.838530      12.535157      23.570056      16.446102      10.135202      13.984528      12.006889      10.846881      10.577462      10.476976       0.111823       0.057693      12.266342      18.092059      11.252214      11.838530       8.632659      19.381759       2.503417       7.875000
         1348.9      86.990984     668.945313     -70.687762      85.278015      13.054545       7.911529       0.053266       2.505818       4.301075      11.940495      12.879156      23.408765      16.118028       9.456212      13.621921      11.684188      10.552341      10.290555      10.193321       0.112068       0.057938      12.657877      18.545620      11.619692      11.940495       8.738331      19.474998       2.504811       7.875000
         1349.4      87.065773     668.945313     -70.635228      82.345244      13.553308       7.917953       0.055848       2.506163       4.279273      11.920313      13.291132      23.103395      15.814496       8.984761      13.199580      11.314090      10.217241       9.964556       9.871065       0.112225       0.058095      13.153937      19.120171      12.087010      11.920313       8.717415      19.456543       2.507402       7.875000
         1349.9      86.994183     668.898438     -70.716420      80.359590      14.133352       7.922700       0.057648       2.504959       4.282191      11.990696      13.780775      22.792602      15.682725       7.989865      12.891492      11.045735       9.975806       9.730182       9.639617       0.112384       0.058254      13.729594      19.778907      12.629242      11.990696       8.790358      19.520903       2.507858       7.875000
         1350.4      87.042503     669.039063     -70.719751      80.308816      14.695187       7.929805       0.060536       2.506107       4.320763      11.923583      14.229531      22.513507      15.512393       7.591686      12.771428      10.940794       9.882925       9.640829       9.551844       0.112583       0.058453      14.286965      20.413868      13.154051      11.923583       8.720805      19.459534       2.503489       7.875000
         1350.9      87.045704     671.175781     -70.718288      81.842595      14.917671       7.935074       0.064432       2.509107       4.341254      11.748121      14.381279      23.025150      15.529546       9.032387      12.778514      10.946707       9.890848       9.649856       9.561517       0.112687       0.058557      14.509073      20.666016      13.361964      11.748121       8.538962      19.299083       2.502605       7.875000
         1351.4      87.086299     673.828125     -70.691595      83.645072      14.724681       7.936286       0.067166       2.511463       4.312957      11.610338      14.202114      23.487211      15.482063      10.744119      12.817625      10.980935       9.924529       9.683978       9.596018       0.112706       0.058576      14.320671      20.449186      13.181856      11.610338       8.396169      19.173091       2.512622       7.875000
         1351.9      87.070154     673.828125     -70.573641      84.874372      14.312955       7.936250       0.069378       2.513747       4.273164      11.476794      13.845149      22.945560      15.743962      11.310479      12.940629      11.087352      10.024148       9.782631       9.694519       0.112705       0.058575      13.915527      19.986328      12.797580      11.476794       8.257768      19.050972       2.519713       7.875000
         1352.4      86.982384     669.507813     -70.631170      85.454388      14.043113       7.936236       0.070135       2.512837       4.307026      11.530016      13.632903      22.820333      15.427493      11.131369      12.956799      11.101929      10.041448       9.801199       9.713748       0.112705       0.058576      13.649757      19.682507      12.545669      11.530016       8.312927      19.099641       2.518832       7.875000
         1352.9      87.099947     673.828125     -70.609631      85.274570      14.007835       7.936329       0.069489       2.506929       4.358805      11.875523      13.659344      22.260583      14.990593      11.102665      12.830124      10.993296       9.948073       9.712032       9.626308       0.112708       0.058578      13.615030      19.642472      12.512696      11.875523       8.670997      19.415585       2.509021       7.875000
         1353.4      87.084492     673.031250     -70.631893      83.755447      13.967718       7.936404       0.070677       2.502662       4.368649      12.125056      13.666441      22.369737      15.027441      12.175187      12.587672      10.784726       9.764792       9.535301       9.452148       0.112709       0.058579      13.575446      19.596754      12.475174      12.125056       8.929603      19.643767       2.495990       7.875000
         1353.9      87.091291     672.300781     -70.631854      80.550752      13.837870       7.936351       0.073326       2.501442       4.307558      12.196358      13.570726      22.284933      15.126720      13.590210      12.225325      10.472796       9.487709       9.266898       9.187069       0.112697       0.058568      13.446954      19.448300      12.353665      12.196358       9.003499      19.708969       2.493149       7.875000
         1354.4      87.095985     672.796875     -70.769455      76.970881      13.705134       7.934756       0.077476       2.506063       4.242265      11.926153      13.417799      22.719449      15.418032      14.139753      11.863111      10.160678       9.209733       8.997347       8.920721       0.112622       0.058492      13.314431      19.296510      12.229448      11.926153       8.723467      19.461884       2.502788       7.875000
         1354.9      87.049809     672.535156     -70.878196      74.561815      13.651330       7.929828       0.079759       2.513731       4.251614      11.477722      13.302236      22.203271      15.124594      13.645966      11.576248       9.913076       8.989011       8.783250       8.709137       0.112446       0.058316      13.257699      19.234992      12.179097      11.477722       8.258731      19.051821       2.515280       7.875000
