~Version Information
VERS .            2.00                          : CWLS Log ASCII Standard - Version 2.00
WRAP .            NO                            : One line per depth step
#
~Well Information
#MNEM.UNIT        DATA                          : DESCRIPTION
#----.----        ----                          : -----------
STRT .F             -3.6                        : Start
STOP .F           3345.9                        : Stop
STEP .F              0.5                        : Step increment
NULL .            -999.250                      : Null value
COMP .            ITB Oil, LLC.                 : Company
WELL .            Murphy #1                     : Well
FLD  .            South Johnson                 : Field
CTRY .            United States                 : State / Country
LOC  .            0375N 0330W NEc SW SW         : Location
LOC2 .            065407                        : Location 2
SRVC .            Weatherford                   : Service company
STAT .            USA / Illinois                : State
CNTY .            Clark                         : County
API  .                                          : API Number
LIC  .            065407                        : Licence Number
LATI .                                          : Latitude
LONG .                                          : Longitude
DATE .            10-Dec-2017                   : Logging Date
#
~Curve Information
#MNEM.UNIT        API CODES                     : CURVE DESCRIPTION
#----.----        ---------                     : -----------------
DEPT .F           00 001 00 00                  : Logged depth
CGXT .DEGF        30 660 01 00                  : MCG External Temperature
SMTU .LB          30 635 00 00                  : DST Uphole Tension
SPCG .MV          30 010 00 00                  : Spontaneous Potential
FEFE .OHMM        10 220 06 00                  : Shallow FE
NPRL .PERC        42 890 01 00                  : Limestone Neutron Por.
CLDC .IN          45 280 01 00                  : Density Caliper
DCOR .G/C3        42 356 01 00                  : Density Correction
DEN  .G/C3        42 350 01 00                  : Compensated Density
PDPE .B/E         45 358 01 00                  : PE
DPRL .PERC        45 890 10 00                  : Limestone Density Por.
XPOR .PERC        94 890 00 00                  : Crossplot Porosity
MNRL .OHMM        15 252 00 00                  : MMR MicroLog Normal
MINV .OHMM        15 250 00 00                  : MMR MicroLog Inverse
GGCE .GAPI        30 310 00 00                  : MCG BH Corrected Gamma
R30T .OHMM        07 120 44 00                  : Array Ind. Two Res 30
R40T .OHMM        07 120 44 00                  : Array Ind. Two Res 40
R60T .OHMM        07 120 44 00                  : Array Ind. Two Res 60
R85T .OHMM        07 120 44 00                  : Array Ind. Two Res 85
RTAT .OHMM        07 120 44 00                  : Array Ind. Two Res Rt
HVOL .F3          70 000 00 00                  : Hole Volume
AVOL .F3          70 000 00 00                  : Annular Volume
NPOR .PERC        42 890 04 00                  : Base Neutron Porosity
NPRS .PERC        42 890 03 00                  : Sandstone Neutron Por.
NPRD .PERC        42 890 02 00                  : Dolomite Neutron Por.
DPOR .PERC        45 890 13 00                  : Base Density Porosity
DPRS .PERC        45 890 12 00                  : Sandstone Density Por.
DPRD .PERC        45 890 11 00                  : Dolomite Density Por.
HDEN .G/C3        42 350 01 00                  : Vectar Processed Density
BIT  .IN          70 282 00 00                  : Bit size
#
~Parameter Information
#MNEM.UNIT        VALUE                         : DESCRIPTION
#----.----        -----                         : -----------
RNID .            5 Inch Main Pass              : Run ID
SON  .            2428-200147218                : Job Number
DREF .            KB                            : Depth reference
EREF .F               591.000                   : Elevation of depth reference
GL   .F               577.000                   : Ground elevation
DDRF .            Kelly Bushing                 : Drilling Depth Reference
RUN  .            One                           : Run number
TDD  .F              3344.000                   : TD (driller)
TDL  .F              3341.000                   : TD (logger)
BS   .IN                7.875                   : Bit size
TIMC .                                          : Time circulation ended
TIML .                                          : Time logger at bottom
UNIT .              13269                       : Equipment ID
BASE .            Flora                         : Equipment base location
ENG  .            Chad Skinner                  : Recording engineer
WIT  .            Doug Knierim                  : Witnessed by
CSGT .            Surface                       : Casing type
CSGS .IN                9.625                   : Casing size
CSGW .LB/FT            29.000                   : Casing weight
CSGD .F               184.000                   : Casing bottom (driller)
CSGL .F               182.000                   : Casing bottom (logger)
CSUP .F           -999999.000                   : Casing Stick Up GL
MUD  .            Chem Gel                      : Mud type
MUDS .            Flowline                      : Mud sample source
MUDD .LB/G              9.300                   : Mud density
MUDV .SEC              72.000                   : Mud viscosity
PH   .                  9.500                   : Mud pH
FL   .ML/30MIN          6.000                   : Mud fluid loss rate
RM   .OHMM              1.710                   : Mud resistivity
RMT  .DEGF             71.000                   : Mud sample temperature
RMF  .OHMM              1.280                   : Mud filtrate resistivity
RMFT .DEGF             71.000                   : Mud filtrate sample temperature
RMC  .OHMM              2.130                   : Mud cake resistivity
RMCT .DEGF             71.000                   : Mud cake sample temperature
RMBT .OHMM              1.240                   : Mud Resistivity at BHT
BHT  .DEGF             99.000                   : Bottom Hole Temperature
TMAX .DEGF             99.000                   : Max recorded temperature
#
~Other Information
-------------------------------------------------------------------------------------------------------------------------------------------------
WLS 17.03.9700
Toolstring: MCG, MMR, MDN (Dual Bowsprings), MPD (8" Profile Plate), MFE, MAI (Two 0.5" Standoffs)
All Intervals logged and scaled per client request.
Logging Speed as per client request.
Logging Matrix: Ran on Limestone 2.71 g/CC TD-1800, Sandstone 2.65 g/CC 1800-1750, Limestone 2.71 g/CC 1750-800, Sandstone 2.65 g/CC 800-Surface.
Annular hole volume from TD to surface casing with 5.5" production casing: 630 cu ft.     
Rig: LW #22
Crew: Dylan Jansen
Chlorides: 550
-------------------------------------------------------------------------------------------------------------------------------------------------
#
#          DEPT           CGXT           SMTU           SPCG           FEFE           NPRL           CLDC           DCOR           DEN            PDPE           DPRL           XPOR           MNRL           MINV           GGCE           R30T           R40T           R60T           R85T           RTAT           HVOL           AVOL           NPOR           NPRS           NPRD           DPOR           DPRS           DPRD           HDEN            BIT
#
~ASCII Log Data
# ...
          905.4      85.202340     607.132813     -25.912233      49.189484       6.865517       8.214632       0.011102       2.660467       4.222549       2.896651       6.413298      45.665226      68.917905      33.938140      38.067061      37.235221      37.106579      37.082418      37.072088       0.120706       0.066576       6.718824      11.034268       5.765996       2.896651      -0.634380      11.204959       2.656354       7.875000
          905.9      85.224534     605.468750     -26.340853      60.861646       6.745722       8.210005       0.013370       2.668829       4.196743       2.407659       6.255246      53.751425      72.827908      29.088377      44.509221      43.616847      43.425391      43.387589      43.371268       0.120574       0.066444       6.597884      10.881323       5.651536       2.407659      -1.141154      10.757805       2.666569       7.875000
          906.4      85.148182     605.468750     -26.062067      77.460629       6.638580       8.206022       0.016488       2.678582       4.024895       1.837291       6.099783      56.184425      77.187275      25.418663      53.197905      52.203080      51.930465      51.874228      51.849774       0.120478       0.066348       6.489855      10.744672       5.549186       1.837291      -1.732262      10.236239       2.681310       7.875000
          906.9      85.259786     605.468750     -25.030901      90.753209       6.890911       8.204433       0.020628       2.683403       3.889556       1.555367       6.286547      64.045908      81.320097      24.097102      58.055557      57.028323      56.695846      56.624955      56.593999       0.120449       0.066319       6.739427      11.064031       5.789839       1.555367      -2.024438       9.978437       2.693515       7.875000
          907.4      85.222218     601.781250     -23.410929      92.200755       7.670343       8.204286       0.024972       2.677701       3.784215       1.888809       6.992410      47.568828      52.588356      26.764956      55.757986      54.815339      54.478442      54.405123      54.373083       0.120446       0.066316       7.512955      12.042180       6.531892       1.888809      -1.678871      10.283349       2.693089       7.875000
          907.9      85.249119     612.285156     -20.771923      77.080218       8.987650       8.204284       0.026732       2.659458       3.663939       2.955685       8.235004      76.738299     107.740052      36.537008      44.972386      44.241267      43.970488      43.911205      43.885377       0.120447       0.066317       8.820665      13.664058       7.781274       2.955685      -0.573200      11.258942       2.673882       7.875000
          908.4      85.235169     610.273438     -16.746402      53.547904      10.873575       8.204372       0.026446       2.637805       3.542960       4.221913       9.967468      47.321637      42.281603      50.406788      33.363638      32.841111      32.653586      32.612934      32.595337       0.120450       0.066320      10.692461      15.930438       9.561797       4.221913       0.739074      12.416830       2.627313       7.875000
          908.9      85.321231     602.183594     -12.495101      35.691773      12.633965       8.204252       0.024282       2.621739       3.438169       5.161433      11.533544      16.566497      20.472546      64.181744      26.073288      25.680779      25.554357      25.527608      25.516132       0.120427       0.066297      12.438624      18.015676      11.219404       5.161433       1.712758      13.275963       2.597706       7.875000
          909.4      85.225645     605.468750      -9.214844      28.691554      13.334557       8.201615       0.020385       2.615580       3.545839       5.521630      12.148651      17.887479      25.397524      71.583933      22.376266      22.054856      21.971404      21.954334      21.947088       0.120294       0.066165      13.131396      18.842633      11.878646       5.521630       2.086053      13.605341       2.601095       7.875000
          909.9      85.217397     603.636719      -8.311496      36.013771      12.678436       8.192895       0.018263       2.624270       3.948555       5.013432      11.548492      17.203797      21.972222      65.411342      25.303435      24.961116      24.903796      24.895016      24.891802       0.120003       0.065873      12.476102      18.075101      11.262250       5.013432       1.559375      13.140625       2.621410       7.875000
          910.4      85.210759     600.585938      -8.831138      52.695444      11.117438       8.181786       0.017795       2.636462       4.412369       4.300449      10.179450      19.046564      22.215349      53.455984      31.847714      31.446253      31.425211      31.434218      31.440400       0.119710       0.065580      10.922400      16.239238       9.794301       4.300449       0.820465      12.488646       2.648041       7.875000
          910.9      85.305266     605.468750     -10.634136      63.052501       9.560106       8.174745       0.019108       2.645003       4.553337       3.800998       8.819799     225.743993     422.537086      41.908710      33.978947      33.587558      33.624221      33.663771      33.686201       0.119538       0.065408       9.373077      14.377305       8.325439       3.800998       0.302852      12.031929       2.657576       7.875000
          911.4      85.187808     605.468750     -12.789939      62.123497       8.765771       8.170338       0.022048       2.649186       4.341991       3.556382       8.119889     221.839286     353.349639      34.872596      36.056121      35.684604      35.785805      35.865714      35.909877       0.119396       0.065266       8.581511      13.410397       7.573777       3.556382       0.049342      11.808243       2.650064       7.875000
          911.9      85.230451     603.167969     -14.541808      56.332070       8.949309       8.164343       0.024958       2.651069       4.134287       3.446244       8.261996      15.720252      22.522731      34.191268      40.114629      39.753217      39.927960      40.064120      40.138667       0.119221       0.065091       8.760411      13.632270       7.747218       3.446244      -0.064802      11.707528       2.641365       7.875000
          912.4      85.256050     600.585938     -15.421682      58.336474       9.297466       8.158718       0.028313       2.659325       4.186205       2.963441       8.497157      34.090288      77.193794      33.882408      41.207833      40.890278      41.120223      41.302728      41.401832       0.119084       0.064954       9.103096      14.055470       8.076560       2.963441      -0.565161      11.266034       2.644033       7.875000
          912.9      85.294476     600.585938     -15.480262      76.024495       8.970627       8.156174       0.031810       2.671970       4.374551       2.223987       8.133542      75.817363     138.968741      32.048374      48.398243      48.088328      48.389624      48.634065      48.765360       0.119023       0.064893       8.777380      13.643611       7.765125       2.223987      -1.331504      10.589849       2.671023       7.875000
          913.4      85.240654     600.585938     -16.024451      98.105722       8.155451       8.154669       0.034901       2.685894       4.322109       1.409693       7.350529      53.774972      94.331845      28.830316      64.817066      64.475395      64.880452      65.215919      65.394107       0.118987       0.064857       7.968209      12.634141       6.991134       1.409693      -2.175409       9.845228       2.699904       7.875000
          913.9      85.322595     600.585938     -17.121206     117.393913       7.535334       8.154141       0.036364       2.698052       4.030445       0.698708       6.743696      66.231697     104.876604      25.887364      79.605626      79.264943      79.694142      80.055999      80.246107       0.118978       0.064848       7.353030      11.874401       6.403617       0.698708      -2.912248       9.195075       2.704093       7.875000
