~Version Information
VERS .            2.00                          : CWLS Log ASCII Standard - Version 2.00
WRAP .            NO                            : One line per depth step
#
~Well Information
#MNEM.UNIT        DATA                          : DESCRIPTION
#----.----        ----                          : -----------
STRT .F             -3.6                        : Start
STOP .F           3345.9                        : Stop
STEP .F              0.5                        : Step increment
NULL .            -999.250                      : Null value
COMP .            ITB Oil, LLC.                 : Company
WELL .            Murphy #1                     : Well
FLD  .            South Johnson                 : Field
CTRY .            United States                 : State / Country
LOC  .            0375N 0330W NEc SW SW         : Location
LOC2 .            065407                        : Location 2
SRVC .            Weatherford                   : Service company
STAT .            USA / Illinois                : State
CNTY .            Clark                         : County
API  .                                          : API Number
LIC  .            065407                        : Licence Number
LATI .                                          : Latitude
LONG .                                          : Longitude
DATE .            10-Dec-2017                   : Logging Date
#
~Curve Information
#MNEM.UNIT        API CODES                     : CURVE DESCRIPTION
#----.----        ---------                     : -----------------
DEPT .F           00 001 00 00                  : Logged depth
CGXT .DEGF        30 660 01 00                  : MCG External Temperature
SMTU .LB          30 635 00 00                  : DST Uphole Tension
SPCG .MV          30 010 00 00                  : Spontaneous Potential
FEFE .OHMM        10 220 06 00                  : Shallow FE
NPRL .PERC        42 890 01 00                  : Limestone Neutron Por.
CLDC .IN          45 280 01 00                  : Density Caliper
DCOR .G/C3        42 356 01 00                  : Density Correction
DEN  .G/C3        42 350 01 00                  : Compensated Density
PDPE .B/E         45 358 01 00                  : PE
DPRL .PERC        45 890 10 00                  : Limestone Density Por.
XPOR .PERC        94 890 00 00                  : Crossplot Porosity
MNRL .OHMM        15 252 00 00                  : MMR MicroLog Normal
MINV .OHMM        15 250 00 00                  : MMR MicroLog Inverse
GGCE .GAPI        30 310 00 00                  : MCG BH Corrected Gamma
R30T .OHMM        07 120 44 00                  : Array Ind. Two Res 30
R40T .OHMM        07 120 44 00                  : Array Ind. Two Res 40
R60T .OHMM        07 120 44 00                  : Array Ind. Two Res 60
R85T .OHMM        07 120 44 00                  : Array Ind. Two Res 85
RTAT .OHMM        07 120 44 00                  : Array Ind. Two Res Rt
HVOL .F3          70 000 00 00                  : Hole Volume
AVOL .F3          70 000 00 00                  : Annular Volume
NPOR .PERC        42 890 04 00                  : Base Neutron Porosity
NPRS .PERC        42 890 03 00                  : Sandstone Neutron Por.
NPRD .PERC        42 890 02 00                  : Dolomite Neutron Por.
DPOR .PERC        45 890 13 00                  : Base Density Porosity
DPRS .PERC        45 890 12 00                  : Sandstone Density Por.
DPRD .PERC        45 890 11 00                  : Dolomite Density Por.
HDEN .G/C3        42 350 01 00                  : Vectar Processed Density
BIT  .IN          70 282 00 00                  : Bit size
#
~Parameter Information
#MNEM.UNIT        VALUE                         : DESCRIPTION
#----.----        -----                         : -----------
RNID .            5 Inch Main Pass              : Run ID
SON  .            2428-200147218                : Job Number
DREF .            KB                            : Depth reference
EREF .F               591.000                   : Elevation of depth reference
GL   .F               577.000                   : Ground elevation
DDRF .            Kelly Bushing                 : Drilling Depth Reference
RUN  .            One                           : Run number
TDD  .F              3344.000                   : TD (driller)
TDL  .F              3341.000                   : TD (logger)
BS   .IN                7.875                   : Bit size
TIMC .                                          : Time circulation ended
TIML .                                          : Time logger at bottom
UNIT .              13269                       : Equipment ID
BASE .            Flora                         : Equipment base location
ENG  .            Chad Skinner                  : Recording engineer
WIT  .            Doug Knierim                  : Witnessed by
CSGT .            Surface                       : Casing type
CSGS .IN                9.625                   : Casing size
CSGW .LB/FT            29.000                   : Casing weight
CSGD .F               184.000                   : Casing bottom (driller)
CSGL .F               182.000                   : Casing bottom (logger)
CSUP .F           -999999.000                   : Casing Stick Up GL
MUD  .            Chem Gel                      : Mud type
MUDS .            Flowline                      : Mud sample source
MUDD .LB/G              9.300                   : Mud density
MUDV .SEC              72.000                   : Mud viscosity
PH   .                  9.500                   : Mud pH
FL   .ML/30MIN          6.000                   : Mud fluid loss rate
RM   .OHMM              1.710                   : Mud resistivity
RMT  .DEGF             71.000                   : Mud sample temperature
RMF  .OHMM              1.280                   : Mud filtrate resistivity
RMFT .DEGF             71.000                   : Mud filtrate sample temperature
RMC  .OHMM              2.130                   : Mud cake resistivity
RMCT .DEGF             71.000                   : Mud cake sample temperature
RMBT .OHMM              1.240                   : Mud Resistivity at BHT
BHT  .DEGF             99.000                   : Bottom Hole Temperature
TMAX .DEGF             99.000                   : Max recorded temperature
#
~Other Information
-------------------------------------------------------------------------------------------------------------------------------------------------
WLS 17.03.9700
Toolstring: MCG, MMR, MDN (Dual Bowsprings), MPD (8" Profile Plate), MFE, MAI (Two 0.5" Standoffs)
All Intervals logged and scaled per client request.
Logging Speed as per client request.
Logging Matrix: Ran on Limestone 2.71 g/CC TD-1800, Sandstone 2.65 g/CC 1800-1750, Limestone 2.71 g/CC 1750-800, Sandstone 2.65 g/CC 800-Surface.
Annular hole volume from TD to surface casing with 5.5" production casing: 630 cu ft.     
Rig: LW #22
Crew: Dylan Jansen
Chlorides: 550
-------------------------------------------------------------------------------------------------------------------------------------------------
#
#          DEPT           CGXT           SMTU           SPCG           FEFE           NPRL           CLDC           DCOR           DEN            PDPE           DPRL           XPOR           MNRL           MINV           GGCE           R30T           R40T           R60T           R85T           RTAT           HVOL           AVOL           NPOR           NPRS           NPRD           DPOR           DPRS           DPRD           HDEN            BIT
#
~ASCII Log Data
# ...
         2444.4      94.365968     952.148438       1.586870      49.522478       7.124078       7.866066       0.028971       2.698533       4.191771       0.670564       6.388992      70.223564     118.575879      34.869059      40.350383      39.754098      40.587951      41.235257      41.603087       0.110719       0.056589       6.797615      11.355884       6.011696       0.670564      -2.941415       9.169339       2.692585       7.875000
         2444.9      94.376655     952.417969       2.607621      51.976798       6.431584       7.865952       0.024195       2.692332       4.104382       1.033241       5.833432      36.353851      50.902523      35.210330      46.329371      45.596066      46.446374      47.120247      47.497102       0.110717       0.056587       6.116975      10.477089       5.350872       1.033241      -2.565550       9.500985       2.684411       7.875000
         2445.4      94.391233     954.203125       3.471715      58.898977       5.898866       7.865982       0.021350       2.690568       4.191416       1.136398       5.382249      34.302488      44.678412      35.597758      54.145459      53.220396      54.058048      54.734952      55.107405       0.110719       0.056589       5.593418       9.789501       4.840652       1.136398      -2.458642       9.595316       2.686756       7.875000
         2445.9      94.306731     957.031250       4.519788      80.805391       5.269114       7.866079       0.020326       2.692902       4.450768       0.999864       4.818122      51.967871      90.214606      33.513824      66.544875      65.317505      66.126584      66.791744      67.152005       0.110721       0.056591       4.974543       8.964720       4.235518       0.999864      -2.600141       9.470464       2.696416       7.875000
         2446.4      94.411049     953.968750       5.457617     116.823151       4.456369       7.866089       0.021507       2.698580       4.738360       0.667859       4.069352     131.744864     213.696432      30.199880      85.522620      83.815235      84.530523      85.128811      85.448445       0.110720       0.056590       4.175851       7.888575       3.452578       0.667859      -2.944219       9.166866       2.699391       7.875000
         2446.9      94.322249     957.031250       6.310100     150.185926       3.598444       7.866005       0.023418       2.703583       4.926892       0.375270       3.280415     143.263115     204.749441      28.453376     107.805874     105.491332     105.970434     106.423427     106.663232       0.110717       0.056587       3.332766       6.744084       2.624666       0.375270      -3.247447       8.899311       2.702179       7.875000
         2447.4      94.371794     973.515625       6.761054     165.453853       2.952497       7.865874       0.024213       2.703888       4.953983       0.357436       2.702525     146.650844     228.492134      30.483118     124.791156     121.932628     121.969096     122.182115     122.295677       0.110715       0.056585       2.698004       5.875287       2.000104       0.357436      -3.265930       8.883003       2.708344       7.875000
         2447.9      94.343048     981.445313       7.335351     161.142116       2.676655       7.865859       0.024950       2.704192       4.854656       0.339665       2.453896     123.373672     172.249642      31.796192     126.969458     123.900723     123.419337     123.377575     123.359222       0.110715       0.056585       2.426949       5.502057       1.733013       0.339665      -3.284347       8.866752       2.706645       7.875000
         2448.4      94.329265     988.507813       7.856762     142.282325       2.805638       7.865964       0.023517       2.700290       4.677373       0.567855       2.591162     130.915183     203.204425      32.820141     115.585850     112.678127     111.773654     111.553268     111.441637       0.110718       0.056588       2.553704       5.676796       1.857942       0.567855      -3.047859       9.075419       2.701806       7.875000
         2448.9      94.338798     993.679687       8.392547     117.193358       3.276860       7.866027       0.020769       2.694999       4.446504       0.877273       3.042435     101.242993     133.417162      35.594738     100.259768      97.662376      96.482926      96.163224      95.996508       0.110719       0.056589       3.016758       6.313569       2.314073       0.877273      -2.727190       9.358362       2.694754       7.875000
         2449.4      94.319767     993.859375       8.890352      95.560678       3.890084       7.866018       0.017977       2.690728       4.351517       1.127026       3.613567      60.569410      78.766153      36.953086      92.141109      89.698069      88.271317      87.849948      87.623128       0.110719       0.056589       3.619349       7.139284       2.907149       1.127026      -2.468354       9.586746       2.686924       7.875000
         2449.9      94.414929     972.562500       9.149359      88.340742       4.268890       7.866020       0.015818       2.687383       4.429873       1.322655       3.969452      43.363741      62.235675      35.171824      89.287860      86.879556      85.172956      84.624092      84.318426       0.110719       0.056590       3.991587       7.648338       3.273334       1.322655      -2.265612       9.765636       2.687089       7.875000
         2450.4      94.412651     962.328125       9.501531      96.838138       4.155499       7.866062       0.015976       2.688313       4.560038       1.268238       3.863414      84.044183     123.185784      30.504585      91.218841      88.719467      86.665621      85.951570      85.540455       0.110720       0.056590       3.880164       7.495655       3.163669       1.268238      -2.322008       9.715875       2.686092       7.875000
         2450.9      94.420681     957.031250       9.932172     112.692908       3.623623       7.866020       0.016888       2.690100       4.684120       1.163738       3.379822      88.655348     132.957469      24.688661     101.305466      98.475807      95.867416      94.894989      94.316709       0.110719       0.056589       3.357521       6.780204       2.649394       1.163738      -2.430308       9.620317       2.689061       7.875000
         2451.4      94.412167     965.500000      10.239089     126.489824       3.049804       7.866021       0.016749       2.689773       4.690352       1.182883       2.868755      79.156094     108.938537      22.187764     113.970199     110.725354     107.448315     106.154000     105.362605       0.110720       0.056590       2.793672       6.007476       2.094416       1.182883      -2.410467       9.637823       2.694898       7.875000
         2451.9      94.405646     952.781250      10.242477     132.981923       2.749553       7.866131       0.016399       2.689858       4.611845       1.177893       2.598855     107.751903     169.163948      22.797205     119.398136     115.936108     112.165489     110.593578     109.604796       0.110723       0.056593       2.498659       5.601889       1.803807       1.177893      -2.415638       9.633260       2.690931       7.875000
         2452.4      94.347071     958.687500       9.870261     135.319773       2.713339       7.866232       0.014762       2.686596       4.546818       1.368680       2.584493      98.094841     145.859552      24.740656     123.436625     119.806692     115.577253     113.719705     112.516884       0.110726       0.056596       2.463106       5.553087       1.768777       1.368680      -2.217913       9.807723       2.688760       7.875000
         2452.9      94.379625     957.031250       9.754668     139.708164       2.808727       7.866303       0.014874       2.686994       4.511739       1.345354       2.668018      87.961007     130.268433      26.860492     130.414311     126.543779     121.752782     119.539285     118.062441       0.110728       0.056598       2.556862       5.683281       1.861334       1.345354      -2.242087       9.786394       2.680930       7.875000
