~Version Information
VERS .            2.00                          : CWLS Log ASCII Standard - Version 2.00
WRAP .            NO                            : One line per depth step
#
~Well Information
#MNEM.UNIT        DATA                          : DESCRIPTION
#----.----        ----                          : -----------
STRT .F             -3.6                        : Start
STOP .F           3345.9                        : Stop
STEP .F              0.5                        : Step increment
NULL .            -999.250                      : Null value
COMP .            ITB Oil, LLC.                 : Company
WELL .            Murphy #1                     : Well
FLD  .            South Johnson                 : Field
CTRY .            United States                 : State / Country
LOC  .            0375N 0330W NEc SW SW         : Location
LOC2 .            065407                        : Location 2
SRVC .            Weatherford                   : Service company
STAT .            USA / Illinois                : State
CNTY .            Clark                         : County
API  .                                          : API Number
LIC  .            065407                        : Licence Number
LATI .                                          : Latitude
LONG .                                          : Longitude
DATE .            10-Dec-2017                   : Logging Date
#
~Curve Information
#MNEM.UNIT        API CODES                     : CURVE DESCRIPTION
#----.----        ---------                     : -----------------
DEPT .F           00 001 00 00                  : Logged depth
CGXT .DEGF        30 660 01 00                  : MCG External Temperature
SMTU .LB          30 635 00 00                  : DST Uphole Tension
SPCG .MV          30 010 00 00                  : Spontaneous Potential
FEFE .OHMM        10 220 06 00                  : Shallow FE
NPRL .PERC        42 890 01 00                  : Limestone Neutron Por.
CLDC .IN          45 280 01 00                  : Density Caliper
DCOR .G/C3        42 356 01 00                  : Density Correction
DEN  .G/C3        42 350 01 00                  : Compensated Density
PDPE .B/E         45 358 01 00                  : PE
DPRL .PERC        45 890 10 00                  : Limestone Density Por.
XPOR .PERC        94 890 00 00                  : Crossplot Porosity
MNRL .OHMM        15 252 00 00                  : MMR MicroLog Normal
MINV .OHMM        15 250 00 00                  : MMR MicroLog Inverse
GGCE .GAPI        30 310 00 00                  : MCG BH Corrected Gamma
R30T .OHMM        07 120 44 00                  : Array Ind. Two Res 30
R40T .OHMM        07 120 44 00                  : Array Ind. Two Res 40
R60T .OHMM        07 120 44 00                  : Array Ind. Two Res 60
R85T .OHMM        07 120 44 00                  : Array Ind. Two Res 85
RTAT .OHMM        07 120 44 00                  : Array Ind. Two Res Rt
HVOL .F3          70 000 00 00                  : Hole Volume
AVOL .F3          70 000 00 00                  : Annular Volume
NPOR .PERC        42 890 04 00                  : Base Neutron Porosity
NPRS .PERC        42 890 03 00                  : Sandstone Neutron Por.
NPRD .PERC        42 890 02 00                  : Dolomite Neutron Por.
DPOR .PERC        45 890 13 00                  : Base Density Porosity
DPRS .PERC        45 890 12 00                  : Sandstone Density Por.
DPRD .PERC        45 890 11 00                  : Dolomite Density Por.
HDEN .G/C3        42 350 01 00                  : Vectar Processed Density
BIT  .IN          70 282 00 00                  : Bit size
#
~Parameter Information
#MNEM.UNIT        VALUE                         : DESCRIPTION
#----.----        -----                         : -----------
RNID .            5 Inch Main Pass              : Run ID
SON  .            2428-200147218                : Job Number
DREF .            KB                            : Depth reference
EREF .F               591.000                   : Elevation of depth reference
GL   .F               577.000                   : Ground elevation
DDRF .            Kelly Bushing                 : Drilling Depth Reference
RUN  .            One                           : Run number
TDD  .F              3344.000                   : TD (driller)
TDL  .F              3341.000                   : TD (logger)
BS   .IN                7.875                   : Bit size
TIMC .                                          : Time circulation ended
TIML .                                          : Time logger at bottom
UNIT .              13269                       : Equipment ID
BASE .            Flora                         : Equipment base location
ENG  .            Chad Skinner                  : Recording engineer
WIT  .            Doug Knierim                  : Witnessed by
CSGT .            Surface                       : Casing type
CSGS .IN                9.625                   : Casing size
CSGW .LB/FT            29.000                   : Casing weight
CSGD .F               184.000                   : Casing bottom (driller)
CSGL .F               182.000                   : Casing bottom (logger)
CSUP .F           -999999.000                   : Casing Stick Up GL
MUD  .            Chem Gel                      : Mud type
MUDS .            Flowline                      : Mud sample source
MUDD .LB/G              9.300                   : Mud density
MUDV .SEC              72.000                   : Mud viscosity
PH   .                  9.500                   : Mud pH
FL   .ML/30MIN          6.000                   : Mud fluid loss rate
RM   .OHMM              1.710                   : Mud resistivity
RMT  .DEGF             71.000                   : Mud sample temperature
RMF  .OHMM              1.280                   : Mud filtrate resistivity
RMFT .DEGF             71.000                   : Mud filtrate sample temperature
RMC  .OHMM              2.130                   : Mud cake resistivity
RMCT .DEGF             71.000                   : Mud cake sample temperature
RMBT .OHMM              1.240                   : Mud Resistivity at BHT
BHT  .DEGF             99.000                   : Bottom Hole Temperature
TMAX .DEGF             99.000                   : Max recorded temperature
#
~Other Information
-------------------------------------------------------------------------------------------------------------------------------------------------
WLS 17.03.9700
Toolstring: MCG, MMR, MDN (Dual Bowsprings), MPD (8" Profile Plate), MFE, MAI (Two 0.5" Standoffs)
All Intervals logged and scaled per client request.
Logging Speed as per client request.
Logging Matrix: Ran on Limestone 2.71 g/CC TD-1800, Sandstone 2.65 g/CC 1800-1750, Limestone 2.71 g/CC 1750-800, Sandstone 2.65 g/CC 800-Surface.
Annular hole volume from TD to surface casing with 5.5" production casing: 630 cu ft.     
Rig: LW #22
Crew: Dylan Jansen
Chlorides: 550
-------------------------------------------------------------------------------------------------------------------------------------------------
#
#          DEPT           CGXT           SMTU           SPCG           FEFE           NPRL           CLDC           DCOR           DEN            PDPE           DPRL           XPOR           MNRL           MINV           GGCE           R30T           R40T           R60T           R85T           RTAT           HVOL           AVOL           NPOR           NPRS           NPRD           DPOR           DPRS           DPRD           HDEN            BIT
#
~ASCII Log Data
# ...
         2660.4      95.377711     981.445313     -41.571398      64.459930       4.486900       7.851189       0.042288       2.637579       3.032127       4.235163       4.460741      53.762133      86.837975      14.040496      42.607862      41.525816      40.786906      40.574648      40.472203       0.110292       0.056162       4.199401       7.940432       3.483929       4.235163       0.752805      12.428946       2.634217       7.875000
         2660.9      95.439475     982.195313     -41.273785      62.895656       4.621635       7.850319       0.045099       2.638676       3.044073       4.170986       4.574559      67.647967     112.305733      14.801692      40.632548      39.588773      38.886731      38.686787      38.590640       0.110275       0.056145       4.331438       8.119220       3.613786       4.170986       0.686295      12.370260       2.640743       7.875000
         2661.4      95.436889     981.187500     -40.656731      61.168440       4.723748       7.850054       0.042838       2.638783       3.189304       4.164723       4.665119      55.117245     105.606391      16.124842      38.702638      37.698737      37.030370      36.840976      36.750012       0.110269       0.056139       4.431539       8.254724       3.712202       4.164723       0.679804      12.364532       2.644985       7.875000
         2661.9      95.507846     957.031250     -39.753129      57.130485       4.817245       7.849962       0.033752       2.634313       3.286701       4.426135       4.776019      65.892745      98.533321      17.947325      37.116335      36.146129      35.500541      35.317381      35.229177       0.110268       0.056138       4.523302       8.377874       3.802158       4.426135       0.950722      12.603578       2.635171       7.875000
         2662.4      95.471804     995.906250     -38.682930      53.672142       4.934113       7.849983       0.024802       2.633751       3.401861       4.459012       4.883780      53.550555      94.940416      19.526357      37.129173      36.151438      35.493316      35.304932      35.213563       0.110267       0.056137       4.638091       8.531677       3.914579       4.459012       0.984794      12.633641       2.622878       7.875000
         2662.9      95.464011     991.210938     -37.730188      55.666979       4.943779       7.849948       0.020551       2.636333       3.555406       4.308037       4.876459      53.395963      98.657316      19.168639      38.792681      37.761269      37.045681      36.836394      36.733461       0.110273       0.056143       4.647727       8.544074       3.923823       4.308037       0.828329      12.495585       2.630271       7.875000
         2663.4      95.491587     995.882812     -36.375152      63.060316       4.756039       7.850707       0.021751       2.642137       3.559487       3.968593       4.673424      75.210934     130.486962      16.878819      42.441170      41.297613      40.464267      40.212079      40.085491       0.110302       0.056172       4.463601       8.295595       3.742989       3.968593       0.476542      12.185184       2.647600       7.875000
         2663.9      95.480737     993.980469     -35.324774      73.171653       4.440213       7.852067       0.027254       2.649001       3.451022       3.567215       4.349979      88.148437     143.000845      14.045758      49.128372      47.775445      46.714715      46.376708      46.201958       0.110334       0.056204       4.153755       7.877781       3.438815       3.567215       0.060569      11.818149       2.658608       7.875000
         2664.4      95.513279     996.093750     -34.298576      82.337936       4.170888       7.852738       0.032323       2.653605       3.339160       3.297953       4.081728      69.525780     131.052144      12.981848      56.774189      55.161150      53.784569      53.318622      53.069418       0.110349       0.056219       3.889558       7.520493       3.179258       3.297953      -0.218485      11.571925       2.653403       7.875000
         2664.9      95.487453     996.093750     -33.279412      90.419182       3.970697       7.853228       0.035329       2.658571       3.435880       3.007516       3.873226      81.299384     134.942847      14.052862      63.744828      61.850877      60.072429      59.426900      59.067829       0.110364       0.056234       3.693148       7.252987       2.985999       3.007516      -0.519483      11.306339       2.648874       7.875000
         2665.4      95.427182     992.570313     -32.327498      97.380348       3.774706       7.853642       0.035636       2.663908       3.619288       2.695464       3.666482      68.473147     114.483557      15.449673      69.612360      67.429379      65.170030      64.286820      63.774197       0.110371       0.056241       3.500767       6.990168       2.796637       2.695464      -0.842883      11.020986       2.657076       7.875000
         2665.9      95.453802     997.738281     -31.357614     102.629918       3.582624       7.853653       0.034406       2.671619       3.699044       2.244505       3.449707      78.101200     115.284917      16.214571      75.196403      72.681500      69.818623      68.611556      67.879101       0.110371       0.056241       3.312147       6.732112       2.610968       2.244505      -1.310240      10.608612       2.675413       7.875000
         2666.4      95.458966     985.414063     -30.443141     106.772983       3.451827       7.853593       0.032506       2.679253       3.703194       1.798075       3.288668      77.833415     113.719995      16.708596      80.452201      77.567470      73.994840      72.380769      71.359381       0.110368       0.056238       3.183672       6.556052       2.484481       1.798075      -1.772905      10.200379       2.687023       7.875000
         2666.9      95.521299     981.445313     -29.724596     109.403691       3.374814       7.853487       0.031246       2.684175       3.707463       1.510218       3.191597      74.395837     117.183649      18.154350      83.917622      80.687643      76.373927      74.295047      72.925289       0.110367       0.056237       3.108024       6.452093       2.409955       1.510218      -2.071229       9.937151       2.688481       7.875000
         2667.4      95.495398     981.445313     -28.877819     111.741773       3.328791       7.853564       0.029036       2.680235       3.687318       1.740631       3.172860      79.707992     118.150904      19.354880      87.549757      83.941601      78.798746      76.173185      74.377332       0.110371       0.056241       3.062841       6.389886       2.365403       1.740631      -1.832437      10.147850       2.685809       7.875000
         2667.9      95.466128     981.445313     -27.945052     114.866849       3.292687       7.853787       0.028024       2.674369       3.550284       2.083672       3.173977      78.841354     116.681984      19.890707      92.156474      88.088682      82.009810      78.768700      76.485982       0.110376       0.056246       3.027419       6.340933       2.330427       2.083672      -1.476922      10.461540       2.674030       7.875000
         2668.4      95.507598     981.445313     -26.681392     122.307095       3.170184       7.853861       0.028754       2.669408       3.487834       2.373809       3.092241      74.515318     127.400923      21.174989      98.320582      93.707570      86.538801      82.570595      79.701251       0.110377       0.056247       2.907121       6.174328       2.211663       2.373809      -1.176234      10.726852       2.665925       7.875000
         2668.9      95.507737     977.503906     -25.252360     136.838995       2.948528       7.853809       0.032265       2.671646       3.465388       2.242895       2.880094      97.951536     149.645433      22.848663     106.698495     101.441892      92.979288      87.931232      84.495139       0.110375       0.056245       2.689408       5.872336       1.996680       2.242895      -1.311909      10.607139       2.660382       7.875000
