~Version Information
VERS .            2.00                          : CWLS Log ASCII Standard - Version 2.00
WRAP .            NO                            : One line per depth step
#
~Well Information
#MNEM.UNIT        DATA                          : DESCRIPTION
#----.----        ----                          : -----------
STRT .F             -3.6                        : Start
STOP .F           3345.9                        : Stop
STEP .F              0.5                        : Step increment
NULL .            -999.250                      : Null value
COMP .            ITB Oil, LLC.                 : Company
WELL .            Murphy #1                     : Well
FLD  .            South Johnson                 : Field
CTRY .            United States                 : State / Country
LOC  .            0375N 0330W NEc SW SW         : Location
LOC2 .            065407                        : Location 2
SRVC .            Weatherford                   : Service company
STAT .            USA / Illinois                : State
CNTY .            Clark                         : County
API  .                                          : API Number
LIC  .            065407                        : Licence Number
LATI .                                          : Latitude
LONG .                                          : Longitude
DATE .            10-Dec-2017                   : Logging Date
#
~Curve Information
#MNEM.UNIT        API CODES                     : CURVE DESCRIPTION
#----.----        ---------                     : -----------------
DEPT .F           00 001 00 00                  : Logged depth
CGXT .DEGF        30 660 01 00                  : MCG External Temperature
SMTU .LB          30 635 00 00                  : DST Uphole Tension
SPCG .MV          30 010 00 00                  : Spontaneous Potential
FEFE .OHMM        10 220 06 00                  : Shallow FE
NPRL .PERC        42 890 01 00                  : Limestone Neutron Por.
CLDC .IN          45 280 01 00                  : Density Caliper
DCOR .G/C3        42 356 01 00                  : Density Correction
DEN  .G/C3        42 350 01 00                  : Compensated Density
PDPE .B/E         45 358 01 00                  : PE
DPRL .PERC        45 890 10 00                  : Limestone Density Por.
XPOR .PERC        94 890 00 00                  : Crossplot Porosity
MNRL .OHMM        15 252 00 00                  : MMR MicroLog Normal
MINV .OHMM        15 250 00 00                  : MMR MicroLog Inverse
GGCE .GAPI        30 310 00 00                  : MCG BH Corrected Gamma
R30T .OHMM        07 120 44 00                  : Array Ind. Two Res 30
R40T .OHMM        07 120 44 00                  : Array Ind. Two Res 40
R60T .OHMM        07 120 44 00                  : Array Ind. Two Res 60
R85T .OHMM        07 120 44 00                  : Array Ind. Two Res 85
RTAT .OHMM        07 120 44 00                  : Array Ind. Two Res Rt
HVOL .F3          70 000 00 00                  : Hole Volume
AVOL .F3          70 000 00 00                  : Annular Volume
NPOR .PERC        42 890 04 00                  : Base Neutron Porosity
NPRS .PERC        42 890 03 00                  : Sandstone Neutron Por.
NPRD .PERC        42 890 02 00                  : Dolomite Neutron Por.
DPOR .PERC        45 890 13 00                  : Base Density Porosity
DPRS .PERC        45 890 12 00                  : Sandstone Density Por.
DPRD .PERC        45 890 11 00                  : Dolomite Density Por.
HDEN .G/C3        42 350 01 00                  : Vectar Processed Density
BIT  .IN          70 282 00 00                  : Bit size
#
~Parameter Information
#MNEM.UNIT        VALUE                         : DESCRIPTION
#----.----        -----                         : -----------
RNID .            5 Inch Main Pass              : Run ID
SON  .            2428-200147218                : Job Number
DREF .            KB                            : Depth reference
EREF .F               591.000                   : Elevation of depth reference
GL   .F               577.000                   : Ground elevation
DDRF .            Kelly Bushing                 : Drilling Depth Reference
RUN  .            One                           : Run number
TDD  .F              3344.000                   : TD (driller)
TDL  .F              3341.000                   : TD (logger)
BS   .IN                7.875                   : Bit size
TIMC .                                          : Time circulation ended
TIML .                                          : Time logger at bottom
UNIT .              13269                       : Equipment ID
BASE .            Flora                         : Equipment base location
ENG  .            Chad Skinner                  : Recording engineer
WIT  .            Doug Knierim                  : Witnessed by
CSGT .            Surface                       : Casing type
CSGS .IN                9.625                   : Casing size
CSGW .LB/FT            29.000                   : Casing weight
CSGD .F               184.000                   : Casing bottom (driller)
CSGL .F               182.000                   : Casing bottom (logger)
CSUP .F           -999999.000                   : Casing Stick Up GL
MUD  .            Chem Gel                      : Mud type
MUDS .            Flowline                      : Mud sample source
MUDD .LB/G              9.300                   : Mud density
MUDV .SEC              72.000                   : Mud viscosity
PH   .                  9.500                   : Mud pH
FL   .ML/30MIN          6.000                   : Mud fluid loss rate
RM   .OHMM              1.710                   : Mud resistivity
RMT  .DEGF             71.000                   : Mud sample temperature
RMF  .OHMM              1.280                   : Mud filtrate resistivity
RMFT .DEGF             71.000                   : Mud filtrate sample temperature
RMC  .OHMM              2.130                   : Mud cake resistivity
RMCT .DEGF             71.000                   : Mud cake sample temperature
RMBT .OHMM              1.240                   : Mud Resistivity at BHT
BHT  .DEGF             99.000                   : Bottom Hole Temperature
TMAX .DEGF             99.000                   : Max recorded temperature
#
~Other Information
-------------------------------------------------------------------------------------------------------------------------------------------------
WLS 17.03.9700
Toolstring: MCG, MMR, MDN (Dual Bowsprings), MPD (8" Profile Plate), MFE, MAI (Two 0.5" Standoffs)
All Intervals logged and scaled per client request.
Logging Speed as per client request.
Logging Matrix: Ran on Limestone 2.71 g/CC TD-1800, Sandstone 2.65 g/CC 1800-1750, Limestone 2.71 g/CC 1750-800, Sandstone 2.65 g/CC 800-Surface.
Annular hole volume from TD to surface casing with 5.5" production casing: 630 cu ft.     
Rig: LW #22
Crew: Dylan Jansen
Chlorides: 550
-------------------------------------------------------------------------------------------------------------------------------------------------
#
#          DEPT           CGXT           SMTU           SPCG           FEFE           NPRL           CLDC           DCOR           DEN            PDPE           DPRL           XPOR           MNRL           MINV           GGCE           R30T           R40T           R60T           R85T           RTAT           HVOL           AVOL           NPOR           NPRS           NPRD           DPOR           DPRS           DPRD           HDEN            BIT
#
~ASCII Log Data
# ...
         3101.4      98.272477    1103.843750      30.426943      27.115705      16.448406       7.926421       0.018561       2.662681       3.802081       2.767164      12.995585      13.807495      19.174530     120.946950      19.906899      19.567447      19.791282      19.932523      20.021131       0.112454       0.058324      16.012349      22.363224      14.787778       2.767164      -0.768575      11.086551       2.668583       7.875000
         3101.9      98.258297    1105.511719      30.530326      26.541894      15.974593       7.929411       0.019941       2.666590       3.779847       2.538607      12.668505      19.339996      26.577833     118.211930      19.226874      18.900344      19.122507      19.263102      19.351207       0.112532       0.058402      15.547095      21.841923      14.346932       2.538607      -1.005444      10.877549       2.666584       7.875000
         3102.4      98.345492    1108.398438      30.596105      25.314712      15.664631       7.931414       0.021700       2.671153       3.739920       2.271728      12.402938      12.682525      17.553738     121.347761      18.736663      18.420649      18.643668      18.785346      18.873986       0.112570       0.058440      15.242976      21.501505      14.058610       2.271728      -1.282027      10.633506       2.665583       7.875000
         3102.9      98.327721    1108.398438      30.340990      24.851708      16.071936       7.931535       0.024319       2.677725       3.773087       1.887421      12.429732      10.698962      15.453105     122.481979      19.232869      18.911919      19.147695      19.298220      19.392184       0.112571       0.058441      15.644981      21.945047      14.437051       1.887421      -1.680309      10.282080       2.672708       7.875000
         3103.4      98.284250    1104.414063      30.476859      26.373235      16.954716       7.931636       0.028025       2.688418       3.896445       1.262127      12.578827      11.093752      17.420685     116.259957      19.736698      19.411567      19.659974      19.819512      19.918812       0.112587       0.058457      16.515378      22.906427      15.257284       1.262127      -2.328341       9.710287       2.686696       7.875000
         3103.9      98.288449    1097.406250      30.626186      29.070078      17.530749       7.933329       0.031842       2.700834       3.999617       0.536011      12.536665      25.370989      39.032402     111.437658      20.937344      20.597558      20.866843      21.041016      21.149027       0.112646       0.058516      17.083942      23.533922      15.792526       0.536011      -3.080861       9.046299       2.703279       7.875000
         3104.4      98.335188    1115.343750      30.898422      31.417031      17.341034       7.935873       0.035198       2.710688       4.040530      -0.040216      12.192938      15.730734      19.812041     110.944132      22.921790      22.555411      22.854710      23.049801      23.170274       0.112710       0.058580      16.897832      23.327400      15.616269      -0.040216      -3.678042       8.519375       2.716941       7.875000
         3104.9      98.283316    1123.046875      31.072974      32.167888      16.527889       7.937282       0.038252       2.717156       4.033504      -0.418470      11.636377      15.353880      24.515746     115.193219      23.907258      23.530554      23.845033      24.051672      24.178691       0.112691       0.058561      16.094981      22.442266      14.860784      -0.418470      -4.070050       8.173485       2.720803       7.875000
         3105.4      98.340789    1119.429688      31.260726      31.796708      15.735358       7.929935       0.041480       2.720976       4.022911      -0.641888      11.157046      28.328287      41.316060     116.279781      23.617985      23.250322      23.560670      23.766147      23.891884       0.112346       0.058216      15.308102      21.577793      14.124243      -0.641888      -4.301593       7.969183       2.720507       7.875000
         3105.9      98.283533    1103.925781      31.334854      30.994106      15.433817       7.909731       0.043134       2.719992       3.968564      -0.584321      11.037259      17.564241      31.647574     113.514781      23.532218      23.169271      23.475294      23.679449      23.803782       0.111799       0.057669      15.002068      21.246745      13.843761      -0.584321      -4.241933       8.021824       2.722685       7.875000
         3106.4      98.327082    1088.484375      31.136899      30.961707      15.419916       7.895945       0.042520       2.715843       3.943568      -0.341707      11.137350      17.778581      28.589907     109.228335      24.272519      23.900488      24.209655      24.417429      24.543353       0.111540       0.057410      14.980397      21.231349      13.830817      -0.341707      -3.990496       8.243680       2.719039       7.875000
         3106.9      98.270141    1118.925781      30.882568      33.237896      15.454508       7.894299       0.040704       2.710339       4.005191      -0.019827      11.295604      13.146349      21.723936     102.390298      25.731152      25.338231      25.656059      25.871123      26.000839       0.111518       0.057388      15.010060      21.269906      13.863061      -0.019827      -3.656912       8.538019       2.710830       7.875000
         3107.4      98.259090    1103.515625      30.668347      36.513550      15.291454       7.894395       0.038152       2.703962       4.034051       0.353096      11.381201      25.792559      41.611136      99.847057      27.003003      26.591328      26.911718      27.129841      27.260803       0.111519       0.057389      14.848497      21.087231      13.710955       0.353096      -3.270428       8.879034       2.702974       7.875000
         3107.9      98.377659    1103.515625      30.683556      38.354249      14.890236       7.894384       0.036030       2.700340       4.000931       0.564922      11.281391      32.919480      64.189367     100.824023      28.218735      27.788689      28.107743      28.326179      28.456751       0.111518       0.057389      14.453591      20.636813      13.336563       0.564922      -3.050899       9.072736       2.694623       7.875000
         3108.4      98.300003    1105.484375      30.558800      37.964074      14.472828       7.894350       0.034256       2.697478       3.960906       0.732260      11.154182      21.409017      29.633774     103.203139      29.183319      28.738385      29.050914      29.265773      29.393736       0.111520       0.057390      14.042910      20.167257      12.946944       0.732260      -2.877476       9.225757       2.694708       7.875000
         3108.9      98.269836    1099.343750      30.464526      36.710829      14.165253       7.894673       0.033058       2.696823       3.950566       0.770599      11.023023      16.485112      28.147524     103.968857      28.732056      28.293742      28.584311      28.784727      28.903712       0.111534       0.057404      13.740431      19.820821      12.659792       0.770599      -2.837743       9.260815       2.699528       7.875000
         3109.4      98.342596    1106.195313      30.193402      36.026379      13.996100       7.895360       0.031990       2.696641       4.060245       0.781205      10.946253      22.182629      32.725171     101.759145      27.938492      27.512398      27.779563      27.964294      28.073683       0.111551       0.057421      13.574251      19.628774      12.501676       0.781205      -2.826751       9.270514       2.698884       7.875000
         3109.9      98.323323    1108.277344      30.135892      36.500594      13.838591       7.895724       0.030125       2.693852       4.157575       0.944318      10.942231      17.934648      25.933580      98.037329      28.577385      28.142302      28.401918      28.581808      28.688090       0.111558       0.057428      13.419478      19.448884      12.354307       0.944318      -2.657707       9.419670       2.698878       7.875000
