~Version Information
VERS .            2.00                          : CWLS Log ASCII Standard - Version 2.00
WRAP .            NO                            : One line per depth step
#
~Well Information
#MNEM.UNIT        DATA                          : DESCRIPTION
#----.----        ----                          : -----------
STRT .F             -3.6                        : Start
STOP .F           3345.9                        : Stop
STEP .F              0.5                        : Step increment
NULL .            -999.250                      : Null value
COMP .            ITB Oil, LLC.                 : Company
WELL .            Murphy #1                     : Well
FLD  .            South Johnson                 : Field
CTRY .            United States                 : State / Country
LOC  .            0375N 0330W NEc SW SW         : Location
LOC2 .            065407                        : Location 2
SRVC .            Weatherford                   : Service company
STAT .            USA / Illinois                : State
CNTY .            Clark                         : County
API  .                                          : API Number
LIC  .            065407                        : Licence Number
LATI .                                          : Latitude
LONG .                                          : Longitude
DATE .            10-Dec-2017                   : Logging Date
#
~Curve Information
#MNEM.UNIT        API CODES                     : CURVE DESCRIPTION
#----.----        ---------                     : -----------------
DEPT .F           00 001 00 00                  : Logged depth
CGXT .DEGF        30 660 01 00                  : MCG External Temperature
SMTU .LB          30 635 00 00                  : DST Uphole Tension
SPCG .MV          30 010 00 00                  : Spontaneous Potential
FEFE .OHMM        10 220 06 00                  : Shallow FE
NPRL .PERC        42 890 01 00                  : Limestone Neutron Por.
CLDC .IN          45 280 01 00                  : Density Caliper
DCOR .G/C3        42 356 01 00                  : Density Correction
DEN  .G/C3        42 350 01 00                  : Compensated Density
PDPE .B/E         45 358 01 00                  : PE
DPRL .PERC        45 890 10 00                  : Limestone Density Por.
XPOR .PERC        94 890 00 00                  : Crossplot Porosity
MNRL .OHMM        15 252 00 00                  : MMR MicroLog Normal
MINV .OHMM        15 250 00 00                  : MMR MicroLog Inverse
GGCE .GAPI        30 310 00 00                  : MCG BH Corrected Gamma
R30T .OHMM        07 120 44 00                  : Array Ind. Two Res 30
R40T .OHMM        07 120 44 00                  : Array Ind. Two Res 40
R60T .OHMM        07 120 44 00                  : Array Ind. Two Res 60
R85T .OHMM        07 120 44 00                  : Array Ind. Two Res 85
RTAT .OHMM        07 120 44 00                  : Array Ind. Two Res Rt
HVOL .F3          70 000 00 00                  : Hole Volume
AVOL .F3          70 000 00 00                  : Annular Volume
NPOR .PERC        42 890 04 00                  : Base Neutron Porosity
NPRS .PERC        42 890 03 00                  : Sandstone Neutron Por.
NPRD .PERC        42 890 02 00                  : Dolomite Neutron Por.
DPOR .PERC        45 890 13 00                  : Base Density Porosity
DPRS .PERC        45 890 12 00                  : Sandstone Density Por.
DPRD .PERC        45 890 11 00                  : Dolomite Density Por.
HDEN .G/C3        42 350 01 00                  : Vectar Processed Density
BIT  .IN          70 282 00 00                  : Bit size
#
~Parameter Information
#MNEM.UNIT        VALUE                         : DESCRIPTION
#----.----        -----                         : -----------
RNID .            5 Inch Main Pass              : Run ID
SON  .            2428-200147218                : Job Number
DREF .            KB                            : Depth reference
EREF .F               591.000                   : Elevation of depth reference
GL   .F               577.000                   : Ground elevation
DDRF .            Kelly Bushing                 : Drilling Depth Reference
RUN  .            One                           : Run number
TDD  .F              3344.000                   : TD (driller)
TDL  .F              3341.000                   : TD (logger)
BS   .IN                7.875                   : Bit size
TIMC .                                          : Time circulation ended
TIML .                                          : Time logger at bottom
UNIT .              13269                       : Equipment ID
BASE .            Flora                         : Equipment base location
ENG  .            Chad Skinner                  : Recording engineer
WIT  .            Doug Knierim                  : Witnessed by
CSGT .            Surface                       : Casing type
CSGS .IN                9.625                   : Casing size
CSGW .LB/FT            29.000                   : Casing weight
CSGD .F               184.000                   : Casing bottom (driller)
CSGL .F               182.000                   : Casing bottom (logger)
CSUP .F           -999999.000                   : Casing Stick Up GL
MUD  .            Chem Gel                      : Mud type
MUDS .            Flowline                      : Mud sample source
MUDD .LB/G              9.300                   : Mud density
MUDV .SEC              72.000                   : Mud viscosity
PH   .                  9.500                   : Mud pH
FL   .ML/30MIN          6.000                   : Mud fluid loss rate
RM   .OHMM              1.710                   : Mud resistivity
RMT  .DEGF             71.000                   : Mud sample temperature
RMF  .OHMM              1.280                   : Mud filtrate resistivity
RMFT .DEGF             71.000                   : Mud filtrate sample temperature
RMC  .OHMM              2.130                   : Mud cake resistivity
RMCT .DEGF             71.000                   : Mud cake sample temperature
RMBT .OHMM              1.240                   : Mud Resistivity at BHT
BHT  .DEGF             99.000                   : Bottom Hole Temperature
TMAX .DEGF             99.000                   : Max recorded temperature
#
~Other Information
-------------------------------------------------------------------------------------------------------------------------------------------------
WLS 17.03.9700
Toolstring: MCG, MMR, MDN (Dual Bowsprings), MPD (8" Profile Plate), MFE, MAI (Two 0.5" Standoffs)
All Intervals logged and scaled per client request.
Logging Speed as per client request.
Logging Matrix: Ran on Limestone 2.71 g/CC TD-1800, Sandstone 2.65 g/CC 1800-1750, Limestone 2.71 g/CC 1750-800, Sandstone 2.65 g/CC 800-Surface.
Annular hole volume from TD to surface casing with 5.5" production casing: 630 cu ft.     
Rig: LW #22
Crew: Dylan Jansen
Chlorides: 550
-------------------------------------------------------------------------------------------------------------------------------------------------
#
#          DEPT           CGXT           SMTU           SPCG           FEFE           NPRL           CLDC           DCOR           DEN            PDPE           DPRL           XPOR           MNRL           MINV           GGCE           R30T           R40T           R60T           R85T           RTAT           HVOL           AVOL           NPOR           NPRS           NPRD           DPOR           DPRS           DPRD           HDEN            BIT
#
~ASCII Log Data
# ...
          689.4      83.919130     538.531250     -58.790512      98.816230      12.835838       8.033853       0.037340       2.407534       2.448700      17.688075      15.915592      21.579167      15.526352      14.450572      32.760530      26.268464      20.178920      18.210473      17.310018       0.115493       0.061363      12.526695      18.269919      11.411489      17.688075      14.694914      24.730806       2.393478       7.875000
          689.9      83.905048     541.992188     -57.708163      81.195309      13.943529       8.033786       0.039683       2.401265       2.435201      18.054656      16.579680      20.829264      15.032673      14.865585      27.894813      22.378224      17.199454      15.537199      14.786588       0.115492       0.061362      13.620505      19.560853      12.451440      18.054656      15.074826      25.066022       2.402136       7.875000
          690.4      83.907445     541.992188     -56.659114      65.070897      14.412097       8.033776       0.042169       2.401395       2.412559      18.047100      16.748885      20.897965      15.307022      14.239144      23.428537      18.802491      14.459790      13.076156      12.459252       0.115492       0.061362      14.083266      20.099924      12.890379      18.047100      15.066995      25.059113       2.405631       7.875000
          690.9      83.926539     525.132813     -55.798687      51.560267      14.442458       8.033756       0.043511       2.400611       2.402676      18.092899      16.790575      17.552698      13.494161      13.539529      19.791600      15.886987      12.225384      11.067875      10.558219       0.115491       0.061361      14.113226      20.134736      12.918805      18.092899      15.114460      25.100994       2.403264       7.875000
          691.4      83.895412     530.023438     -55.465561      42.950528      14.147346       8.033670       0.045245       2.397595       2.400523      18.269277      16.799025      16.959695      13.368510      13.643924      17.246684      13.843832      10.659615       9.661015       9.226459       0.115488       0.061358      13.821685      19.798623      12.642810      18.269277      15.297251      25.262280       2.397737       7.875000
          691.9      83.885778     541.992188     -55.630436      39.704170      13.736424       8.033559       0.049329       2.394799       2.390613      18.432812      16.755665      12.866363      10.993037      13.566965      16.170356      12.976324       9.997134       9.070369       8.671480       0.115486       0.061356      13.415764      19.329657      12.258383      18.432812      15.466734      25.411824       2.393375       7.875000
          692.4      83.903480     539.867188     -55.927913      41.111766      13.612230       8.033602       0.056887       2.391764       2.369815      18.610271      16.828704      17.846984      14.444065      13.584589      16.164543      12.964498       9.992649       9.075564       8.684719       0.115488       0.061358      13.293085      19.186453      12.142008      18.610271      15.650644      25.574097       2.391767       7.875000
          692.9      83.869376     541.792969     -56.385254      43.887087      14.100131       8.033722       0.065467       2.386934       2.320420      18.892731      17.200468      19.364982      13.974058      12.868501      16.364950      13.115307      10.112540       9.193138       8.804786       0.115490       0.061360      13.774981      19.732832      12.597135      18.892731      15.943376      25.832391       2.392288       7.875000
          693.4      83.933670     541.992188     -57.002529      45.017840      15.256539       8.033568       0.072356       2.381192       2.239178      19.228540      17.847804      19.083000      13.948824      12.678195      16.325373      13.070683      10.080378       9.171604       8.790692       0.115484       0.061354      14.917116      21.026882      13.675768      19.228540      16.291395      26.139466       2.384089       7.875000
          693.9      83.946975     537.109375     -57.878304      43.560674      16.294513       8.033324       0.074491       2.372548       2.169687      19.734018      18.558859      19.013281      14.053675      13.639630      15.763617      12.606463       9.723351       8.853442       8.491346       0.115477       0.061347      15.942174      22.187410      14.643804      19.734018      16.815255      26.601695       2.370122       7.875000
          694.4      83.860618     539.703125     -59.270904      41.586184      16.751159       8.033052       0.070871       2.363681       2.112769      20.252560      19.070251      17.436039      13.140645      14.904582      15.262277      12.189743       9.401390       8.565719       8.219967       0.115465       0.061335      16.392872      22.695720      15.069388      20.252560      17.352653      27.075870       2.358319       7.875000
          694.9      83.868684     541.992188     -60.863350      42.434110      16.826083       8.032282       0.063199       2.354537       2.093971      20.787322      19.461186      14.926283      13.478278      15.433556      15.220177      12.139253       9.360822       8.533513       8.193128       0.115441       0.061311      16.466442      22.779691      15.139281      20.787322      17.906861      27.564877       2.352117       7.875000
          695.4      83.913411     541.992188     -62.639414      47.388117      16.947821       8.031510       0.056017       2.347839       2.107047      21.179013      19.772038      18.125483      14.418034      15.109563      15.708602      12.510420       9.643995       8.795681       8.448413       0.115424       0.061294      16.586256      22.911323      15.252285      21.179013      18.312796      27.923055       2.350962       7.875000
          695.9      83.879559     541.992188     -64.074345      53.726901      17.397418       8.031250       0.052548       2.343243       2.125812      21.447777      20.110607      19.270841      14.751197      16.127782      16.624883      13.220291      10.186991       9.294502       8.930884       0.115419       0.061289      17.030074      23.396635      15.669534      21.447777      18.591333      28.168823       2.344188       7.875000
          696.4      83.953954     541.992188     -65.353271      58.883383      17.762738       8.031301       0.055366       2.344771       2.157213      21.358415      20.172926      19.126395      14.612410      18.498241      17.603215      13.977002      10.764661       9.824744       9.443543       0.115429       0.061299      17.391094      23.790664      16.008533      21.358415      18.498719      28.087105       2.337935       7.875000
          696.9      83.902995     541.992188     -66.444794      62.181236      17.826890       8.032274       0.059536       2.347343       2.160839      21.208015      20.091370      19.297028      14.848559      19.301002      17.978927      14.254196      10.972296      10.017148       9.631492       0.115463       0.061333      17.455032      23.860273      16.068108      21.208015      18.342852      27.949576       2.342084       7.875000
          697.4      83.922754     541.992188     -67.328830      64.375045      17.538724       8.033769       0.063593       2.351777       2.163311      20.948703      19.815846      19.472600      14.867565      19.065194      17.829944      14.115848      10.859839       9.917037       9.537998       0.115500       0.061370      17.171135      23.550624      15.800831      20.948703      18.074111      27.712451       2.354943       7.875000
          697.9      83.950115     545.902344     -68.209166      66.023172      17.047702       8.034427       0.064792       2.353705       2.153685      20.835940      19.570691      19.522152      14.515930      18.253682      17.557261      13.881204      10.673638       9.749295       9.379194       0.115510       0.061380      16.686637      23.019901      15.345059      20.835940      17.957247      27.609335       2.361136       7.875000
