~Version Information
VERS .            2.00                          : CWLS Log ASCII Standard - Version 2.00
WRAP .            NO                            : One line per depth step
#
~Well Information
#MNEM.UNIT        DATA                          : DESCRIPTION
#----.----        ----                          : -----------
STRT .F             -3.6                        : Start
STOP .F           3345.9                        : Stop
STEP .F              0.5                        : Step increment
NULL .            -999.250                      : Null value
COMP .            ITB Oil, LLC.                 : Company
WELL .            Murphy #1                     : Well
FLD  .            South Johnson                 : Field
CTRY .            United States                 : State / Country
LOC  .            0375N 0330W NEc SW SW         : Location
LOC2 .            065407                        : Location 2
SRVC .            Weatherford                   : Service company
STAT .            USA / Illinois                : State
CNTY .            Clark                         : County
API  .                                          : API Number
LIC  .            065407                        : Licence Number
LATI .                                          : Latitude
LONG .                                          : Longitude
DATE .            10-Dec-2017                   : Logging Date
#
~Curve Information
#MNEM.UNIT        API CODES                     : CURVE DESCRIPTION
#----.----        ---------                     : -----------------
DEPT .F           00 001 00 00                  : Logged depth
CGXT .DEGF        30 660 01 00                  : MCG External Temperature
SMTU .LB          30 635 00 00                  : DST Uphole Tension
SPCG .MV          30 010 00 00                  : Spontaneous Potential
FEFE .OHMM        10 220 06 00                  : Shallow FE
NPRL .PERC        42 890 01 00                  : Limestone Neutron Por.
CLDC .IN          45 280 01 00                  : Density Caliper
DCOR .G/C3        42 356 01 00                  : Density Correction
DEN  .G/C3        42 350 01 00                  : Compensated Density
PDPE .B/E         45 358 01 00                  : PE
DPRL .PERC        45 890 10 00                  : Limestone Density Por.
XPOR .PERC        94 890 00 00                  : Crossplot Porosity
MNRL .OHMM        15 252 00 00                  : MMR MicroLog Normal
MINV .OHMM        15 250 00 00                  : MMR MicroLog Inverse
GGCE .GAPI        30 310 00 00                  : MCG BH Corrected Gamma
R30T .OHMM        07 120 44 00                  : Array Ind. Two Res 30
R40T .OHMM        07 120 44 00                  : Array Ind. Two Res 40
R60T .OHMM        07 120 44 00                  : Array Ind. Two Res 60
R85T .OHMM        07 120 44 00                  : Array Ind. Two Res 85
RTAT .OHMM        07 120 44 00                  : Array Ind. Two Res Rt
HVOL .F3          70 000 00 00                  : Hole Volume
AVOL .F3          70 000 00 00                  : Annular Volume
NPOR .PERC        42 890 04 00                  : Base Neutron Porosity
NPRS .PERC        42 890 03 00                  : Sandstone Neutron Por.
NPRD .PERC        42 890 02 00                  : Dolomite Neutron Por.
DPOR .PERC        45 890 13 00                  : Base Density Porosity
DPRS .PERC        45 890 12 00                  : Sandstone Density Por.
DPRD .PERC        45 890 11 00                  : Dolomite Density Por.
HDEN .G/C3        42 350 01 00                  : Vectar Processed Density
BIT  .IN          70 282 00 00                  : Bit size
#
~Parameter Information
#MNEM.UNIT        VALUE                         : DESCRIPTION
#----.----        -----                         : -----------
RNID .            5 Inch Main Pass              : Run ID
SON  .            2428-200147218                : Job Number
DREF .            KB                            : Depth reference
EREF .F               591.000                   : Elevation of depth reference
GL   .F               577.000                   : Ground elevation
DDRF .            Kelly Bushing                 : Drilling Depth Reference
RUN  .            One                           : Run number
TDD  .F              3344.000                   : TD (driller)
TDL  .F              3341.000                   : TD (logger)
BS   .IN                7.875                   : Bit size
TIMC .                                          : Time circulation ended
TIML .                                          : Time logger at bottom
UNIT .              13269                       : Equipment ID
BASE .            Flora                         : Equipment base location
ENG  .            Chad Skinner                  : Recording engineer
WIT  .            Doug Knierim                  : Witnessed by
CSGT .            Surface                       : Casing type
CSGS .IN                9.625                   : Casing size
CSGW .LB/FT            29.000                   : Casing weight
CSGD .F               184.000                   : Casing bottom (driller)
CSGL .F               182.000                   : Casing bottom (logger)
CSUP .F           -999999.000                   : Casing Stick Up GL
MUD  .            Chem Gel                      : Mud type
MUDS .            Flowline                      : Mud sample source
MUDD .LB/G              9.300                   : Mud density
MUDV .SEC              72.000                   : Mud viscosity
PH   .                  9.500                   : Mud pH
FL   .ML/30MIN          6.000                   : Mud fluid loss rate
RM   .OHMM              1.710                   : Mud resistivity
RMT  .DEGF             71.000                   : Mud sample temperature
RMF  .OHMM              1.280                   : Mud filtrate resistivity
RMFT .DEGF             71.000                   : Mud filtrate sample temperature
RMC  .OHMM              2.130                   : Mud cake resistivity
RMCT .DEGF             71.000                   : Mud cake sample temperature
RMBT .OHMM              1.240                   : Mud Resistivity at BHT
BHT  .DEGF             99.000                   : Bottom Hole Temperature
TMAX .DEGF             99.000                   : Max recorded temperature
#
~Other Information
-------------------------------------------------------------------------------------------------------------------------------------------------
WLS 17.03.9700
Toolstring: MCG, MMR, MDN (Dual Bowsprings), MPD (8" Profile Plate), MFE, MAI (Two 0.5" Standoffs)
All Intervals logged and scaled per client request.
Logging Speed as per client request.
Logging Matrix: Ran on Limestone 2.71 g/CC TD-1800, Sandstone 2.65 g/CC 1800-1750, Limestone 2.71 g/CC 1750-800, Sandstone 2.65 g/CC 800-Surface.
Annular hole volume from TD to surface casing with 5.5" production casing: 630 cu ft.     
Rig: LW #22
Crew: Dylan Jansen
Chlorides: 550
-------------------------------------------------------------------------------------------------------------------------------------------------
#
#          DEPT           CGXT           SMTU           SPCG           FEFE           NPRL           CLDC           DCOR           DEN            PDPE           DPRL           XPOR           MNRL           MINV           GGCE           R30T           R40T           R60T           R85T           RTAT           HVOL           AVOL           NPOR           NPRS           NPRD           DPOR           DPRS           DPRD           HDEN            BIT
#
~ASCII Log Data
# ...
          248.4      82.382382     459.585938     -49.196527      17.879047      24.066088       8.469583       0.036302       2.594016       3.182105       6.782707      18.368214       3.733378       2.683880     125.392181      15.818603      16.099251      16.598894      16.855712      16.990943       0.128363       0.074233      24.016864      30.269265      21.827142       6.782707       3.392987      14.758518       2.594929       7.875000
          248.9      82.365941     454.386719     -48.573663      17.507659      24.218070       8.469676       0.036448       2.590814       3.121547       6.969961      18.521203       3.721269       2.682179     127.485219      15.405799      15.681891      16.161741      16.402296      16.527081       0.128364       0.074234      24.169003      30.417439      21.966833       6.969961       3.587051      14.929751       2.593858       7.875000
          249.4      82.356327     455.640625     -48.121914      17.328168      24.715871       8.469615       0.036292       2.585131       2.987077       7.302307      18.900516       3.703094       2.681426     130.018107      15.272535      15.551075      16.025410      16.258297      16.377623       0.128363       0.074233      24.664678      30.898657      22.424177       7.302307       3.931482      15.233661       2.589865       7.875000
          249.9      82.348225     456.425781     -47.807458      17.366876      25.636364       8.469615       0.034831       2.576166       2.881963       7.826553      19.562311       3.696507       2.678509     130.805018      15.301219      15.587348      16.066085      16.296940      16.413972       0.128363       0.074233      25.580931      31.785033      23.269711       7.826553       4.474791      15.713051       2.578056       7.875000
          250.4      82.389796     440.523438     -47.797044      17.644516      26.491211       8.469638       0.032370       2.566817       2.814010       8.373298      20.202261       3.695895       2.683321     130.457233      15.459525      15.757595      16.248169      16.480852      16.597685       0.128364       0.074234      26.431848      32.607805      24.054929       8.373298       5.041418      16.213015       2.564227       7.875000
          250.9      82.346596     462.480469     -47.849606      18.048521      26.734408       8.469651       0.028203       2.556648       2.782468       8.967967      20.573748       3.707426       2.685723     127.455396      15.775735      16.090155      16.599914      16.838120      16.956704       0.128364       0.074234      26.674178      32.842671      24.278348       8.967967       5.657712      16.756805       2.553196       7.875000
          251.4      82.384705     465.804687     -47.665607      18.338720      26.299804       8.469835       0.026387       2.553919       2.807320       9.127527      20.437490       3.730640       2.689476     125.743824      15.962459      16.290888      16.816978      17.059857      17.179895       0.128389       0.074259      26.242896      32.427608      23.879288       9.127527       5.823073      16.902712       2.545464       7.875000
          251.9      82.413060     448.199219     -47.272332      18.210393      25.545118       8.472544       0.026123       2.557171       2.849164       8.937376      19.999089       3.766191       2.690260     125.977810      15.752513      16.086274      16.615752      16.857691      16.976460       0.128518       0.074388      25.494643      31.704546      23.186230       8.937376       5.626008      16.728831       2.550921       7.875000
          252.4      82.347122     449.218750     -46.845060      17.617070      24.939632       8.479419       0.026784       2.565740       2.936171       8.436280      19.496569       3.722657       2.682935     126.413730      15.332771      15.665653      16.190536      16.428580      16.544739       0.128722       0.074592      24.895925      31.121075      22.630043       8.436280       5.106690      16.270608       2.564292       7.875000
          252.9      82.329558     457.414063     -46.612846      16.949262      24.741271       8.484893       0.028377       2.578135       3.129041       7.711419      19.089464       3.655455       2.683846     126.901782      15.001361      15.332644      15.854828      16.090999      16.205748       0.128843       0.074713      24.702229      30.928644      22.447774       7.711419       4.355470      15.607768       2.579063       7.875000
          253.4      82.368839     461.656250     -46.559780      16.677413      25.196463       8.486193       0.028794       2.587913       3.357325       7.139587      19.057447       3.637625       2.684619     124.666867      14.671613      14.998552      15.516803      15.751699      15.865518       0.128871       0.074741      25.157720      31.364530      22.865792       7.139587       3.762844      15.084863       2.591737       7.875000
          253.9      82.415977     449.218750     -46.456182      16.841805      26.088037       8.486716       0.028267       2.593571       3.490121       6.808697      19.335920       3.671017       2.691432     123.160989      14.498844      14.822643      15.341658      15.578483      15.693104       0.128886       0.074756      26.046104      32.218931      23.684589       6.808697       3.419922      14.782285       2.600567       7.875000
          254.4      82.422163     449.218750     -46.222736      17.026653      26.597410       8.487027       0.030848       2.598289       3.440824       6.532819      19.457439       3.674590       2.690225     125.032957      14.417093      14.737911      15.260210      15.501012      15.617556       0.128869       0.074739      26.550961      32.707644      24.152406       6.532819       3.134013      14.530012       2.598849       7.875000
          254.9      82.452632     449.218750     -45.880107      16.814161      26.394997       8.483623       0.035971       2.605608       3.275857       6.104789      19.176735       3.674213       2.690352     130.788969      14.066508      14.377333      14.892898      15.133671      15.250290       0.128606       0.074476      26.342023      32.513889      23.966526       6.104789       2.690418      14.138604       2.596573       7.875000
          255.4      82.394623     449.218750     -45.522232      16.043186      26.103264       8.462941       0.039184       2.611860       3.347789       5.739192      18.880669       3.650189       2.689807     137.120211      13.273974      13.564725      14.057360      14.290953      14.404288       0.127912       0.073782      26.037861      32.233953      23.698614       5.739192       2.311526      13.804288       2.607864       7.875000
          255.9      82.453023     430.015625     -45.123879      15.010789      26.649530       8.438380       0.041456       2.619300       3.786892       5.304086      18.950860       3.600970       2.684515     137.825904      12.403983      12.673403      13.140342      13.365446      13.474926       0.127307       0.073177      26.565677      32.742136      24.199920       5.304086       1.860599      13.406410       2.624711       7.875000
          256.4      82.422422     454.031250     -44.862099      14.017306      28.372305       8.429623       0.036829       2.614713       4.074186       5.572346      19.880985       3.556969       2.686658     136.446576      11.559278      11.808968      12.251379      12.468263      12.574076       0.127135       0.073005      28.268095      34.348180      25.781143       5.572346       2.138613      13.651717       2.631586       7.875000
          256.9      82.465199     449.218750     -44.462323      13.339584      29.885030       8.428486       0.030823       2.603849       4.064723       6.207673      20.869349       3.548528       2.688885     137.154803      10.974775      11.211257      11.639475      11.852997      11.957570       0.127147       0.073017      29.768131      35.759870      27.169580       6.207673       2.797043      14.232684       2.614757       7.875000
