~Version Information
VERS .            2.00                          : CWLS Log ASCII Standard - Version 2.00
WRAP .            NO                            : One line per depth step
#
~Well Information
#MNEM.UNIT        DATA                          : DESCRIPTION
#----.----        ----                          : -----------
STRT .F             -3.6                        : Start
STOP .F           3345.9                        : Stop
STEP .F              0.5                        : Step increment
NULL .            -999.250                      : Null value
COMP .            ITB Oil, LLC.                 : Company
WELL .            Murphy #1                     : Well
FLD  .            South Johnson                 : Field
CTRY .            United States                 : State / Country
LOC  .            0375N 0330W NEc SW SW         : Location
LOC2 .            065407                        : Location 2
SRVC .            Weatherford                   : Service company
STAT .            USA / Illinois                : State
CNTY .            Clark                         : County
API  .                                          : API Number
LIC  .            065407                        : Licence Number
LATI .                                          : Latitude
LONG .                                          : Longitude
DATE .            10-Dec-2017                   : Logging Date
#
~Curve Information
#MNEM.UNIT        API CODES                     : CURVE DESCRIPTION
#----.----        ---------                     : -----------------
DEPT .F           00 001 00 00                  : Logged depth
CGXT .DEGF        30 660 01 00                  : MCG External Temperature
SMTU .LB          30 635 00 00                  : DST Uphole Tension
SPCG .MV          30 010 00 00                  : Spontaneous Potential
FEFE .OHMM        10 220 06 00                  : Shallow FE
NPRL .PERC        42 890 01 00                  : Limestone Neutron Por.
CLDC .IN          45 280 01 00                  : Density Caliper
DCOR .G/C3        42 356 01 00                  : Density Correction
DEN  .G/C3        42 350 01 00                  : Compensated Density
PDPE .B/E         45 358 01 00                  : PE
DPRL .PERC        45 890 10 00                  : Limestone Density Por.
XPOR .PERC        94 890 00 00                  : Crossplot Porosity
MNRL .OHMM        15 252 00 00                  : MMR MicroLog Normal
MINV .OHMM        15 250 00 00                  : MMR MicroLog Inverse
GGCE .GAPI        30 310 00 00                  : MCG BH Corrected Gamma
R30T .OHMM        07 120 44 00                  : Array Ind. Two Res 30
R40T .OHMM        07 120 44 00                  : Array Ind. Two Res 40
R60T .OHMM        07 120 44 00                  : Array Ind. Two Res 60
R85T .OHMM        07 120 44 00                  : Array Ind. Two Res 85
RTAT .OHMM        07 120 44 00                  : Array Ind. Two Res Rt
HVOL .F3          70 000 00 00                  : Hole Volume
AVOL .F3          70 000 00 00                  : Annular Volume
NPOR .PERC        42 890 04 00                  : Base Neutron Porosity
NPRS .PERC        42 890 03 00                  : Sandstone Neutron Por.
NPRD .PERC        42 890 02 00                  : Dolomite Neutron Por.
DPOR .PERC        45 890 13 00                  : Base Density Porosity
DPRS .PERC        45 890 12 00                  : Sandstone Density Por.
DPRD .PERC        45 890 11 00                  : Dolomite Density Por.
HDEN .G/C3        42 350 01 00                  : Vectar Processed Density
BIT  .IN          70 282 00 00                  : Bit size
#
~Parameter Information
#MNEM.UNIT        VALUE                         : DESCRIPTION
#----.----        -----                         : -----------
RNID .            5 Inch Main Pass              : Run ID
SON  .            2428-200147218                : Job Number
DREF .            KB                            : Depth reference
EREF .F               591.000                   : Elevation of depth reference
GL   .F               577.000                   : Ground elevation
DDRF .            Kelly Bushing                 : Drilling Depth Reference
RUN  .            One                           : Run number
TDD  .F              3344.000                   : TD (driller)
TDL  .F              3341.000                   : TD (logger)
BS   .IN                7.875                   : Bit size
TIMC .                                          : Time circulation ended
TIML .                                          : Time logger at bottom
UNIT .              13269                       : Equipment ID
BASE .            Flora                         : Equipment base location
ENG  .            Chad Skinner                  : Recording engineer
WIT  .            Doug Knierim                  : Witnessed by
CSGT .            Surface                       : Casing type
CSGS .IN                9.625                   : Casing size
CSGW .LB/FT            29.000                   : Casing weight
CSGD .F               184.000                   : Casing bottom (driller)
CSGL .F               182.000                   : Casing bottom (logger)
CSUP .F           -999999.000                   : Casing Stick Up GL
MUD  .            Chem Gel                      : Mud type
MUDS .            Flowline                      : Mud sample source
MUDD .LB/G              9.300                   : Mud density
MUDV .SEC              72.000                   : Mud viscosity
PH   .                  9.500                   : Mud pH
FL   .ML/30MIN          6.000                   : Mud fluid loss rate
RM   .OHMM              1.710                   : Mud resistivity
RMT  .DEGF             71.000                   : Mud sample temperature
RMF  .OHMM              1.280                   : Mud filtrate resistivity
RMFT .DEGF             71.000                   : Mud filtrate sample temperature
RMC  .OHMM              2.130                   : Mud cake resistivity
RMCT .DEGF             71.000                   : Mud cake sample temperature
RMBT .OHMM              1.240                   : Mud Resistivity at BHT
BHT  .DEGF             99.000                   : Bottom Hole Temperature
TMAX .DEGF             99.000                   : Max recorded temperature
#
~Other Information
-------------------------------------------------------------------------------------------------------------------------------------------------
WLS 17.03.9700
Toolstring: MCG, MMR, MDN (Dual Bowsprings), MPD (8" Profile Plate), MFE, MAI (Two 0.5" Standoffs)
All Intervals logged and scaled per client request.
Logging Speed as per client request.
Logging Matrix: Ran on Limestone 2.71 g/CC TD-1800, Sandstone 2.65 g/CC 1800-1750, Limestone 2.71 g/CC 1750-800, Sandstone 2.65 g/CC 800-Surface.
Annular hole volume from TD to surface casing with 5.5" production casing: 630 cu ft.     
Rig: LW #22
Crew: Dylan Jansen
Chlorides: 550
-------------------------------------------------------------------------------------------------------------------------------------------------
#
#          DEPT           CGXT           SMTU           SPCG           FEFE           NPRL           CLDC           DCOR           DEN            PDPE           DPRL           XPOR           MNRL           MINV           GGCE           R30T           R40T           R60T           R85T           RTAT           HVOL           AVOL           NPOR           NPRS           NPRD           DPOR           DPRS           DPRD           HDEN            BIT
#
~ASCII Log Data
# ...
         2219.4      93.290671     903.320313     -37.542127      69.680792       6.650615       7.855405       0.037602       2.649061       3.840767       3.563667       6.300894     112.718569     136.100215      21.015262      37.441021      36.209430      35.474536      35.283634      35.199377       0.110419       0.056289       6.326651      10.741520       5.557724       3.563667       0.056891      11.814904       2.654237       7.875000
         2219.9      93.273676     903.320313     -36.435911      65.607095       6.125696       7.855127       0.037322       2.672254       3.916207       2.207381       5.694482      55.353980      59.988927      24.575418      35.902235      34.718283      34.069300      33.907747      33.837732       0.110409       0.056279       5.811029      10.080844       5.057672       2.207381      -1.348714      10.574664       2.682527       7.875000
         2220.4      93.227228     910.929688     -36.140468      56.576582       6.405639       7.854880       0.037812       2.686904       3.943290       1.350628       5.845077      89.424405     103.638526      27.301697      32.098668      31.033902      30.500627      30.373561      30.319586       0.110409       0.056279       6.086028      10.440206       5.325470       1.350628      -2.236622       9.791216       2.699775       7.875000
         2220.9      93.211366     907.605469     -36.764046      48.865650       7.290832       7.855156       0.037684       2.683927       3.883882       1.524736       6.626566      45.126109      45.590188      28.458201      27.688263      26.761437      26.339627      26.243474      26.203490       0.110407       0.056277       6.955460      11.561712       6.169907       1.524736      -2.056183       9.950427       2.700689       7.875000
         2221.4      93.284982     908.023438     -38.346337      42.191452       8.542277       7.853945       0.039258       2.668558       3.659403       2.423498       7.795628      62.776230      89.325575      28.167467      23.334364      22.545387      22.221841      22.151317      22.122622       0.110355       0.056225       8.184467      13.120679       7.359592       2.423498      -1.124738      10.772290       2.681247       7.875000
         2221.9      93.255345     898.175781     -40.389381      35.898543      10.180940       7.851426       0.040594       2.640978       3.338467       4.036363       9.369160      49.636632      71.466269      27.362416      19.585075      18.916646      18.672335      18.621394      18.601099       0.110293       0.056163       9.793883      15.111359       8.909768       4.036363       0.546776      12.247155       2.645185       7.875000
         2222.4      93.288917     880.125000     -42.189497      30.647976      12.159447       7.850041       0.042865       2.612413       3.051714       5.706829      11.223858      34.292424      39.615899      27.289407      17.416840      16.817400      16.625809      16.587645      16.572750       0.110270       0.056140      11.737711      17.458304      10.773276       5.706829       2.277987      13.774694       2.602022       7.875000
         2222.9      93.253566     882.804688     -43.346081      28.018547      13.912829       7.850470       0.043231       2.589476       2.931194       7.048207      12.834540      36.938821      41.960431      26.236350      15.839765      15.291611      15.141702      15.113163      15.102232       0.110299       0.056169      13.461202      19.498846      12.419162       7.048207       3.668142      15.001302       2.574858       7.875000
         2223.4      93.267405     884.164063     -43.594341      28.770629      14.732211       7.852468       0.040376       2.578414       2.975306       7.695100      13.585949      33.383384      31.105846      24.062441      15.482186      14.944886      14.823235      14.801141      14.792831       0.110357       0.056227      14.267044      20.445492      13.187321       7.695100       4.338558      15.592845       2.561207       7.875000
         2223.9      93.261682     876.722656     -43.087459      32.479466      14.034736       7.853489       0.034825       2.579581       3.294151       7.626832      13.018553      36.097485      34.397424      24.226726      16.776983      16.194059      16.089719      16.071601      16.064890       0.110343       0.056213      13.581356      19.638588      12.533298       7.626832       4.267808      15.530419       2.571368       7.875000
         2224.4      93.313677     892.992188     -42.777057      36.491625      12.329110       7.850464       0.030785       2.589373       3.571209       7.054230      11.551810      36.771758      39.356917      25.928480      17.851006      17.230349      17.147701      17.133974      17.128962       0.110238       0.056108      11.903971      17.655904      10.932568       7.054230       3.674384      15.006809       2.592320       7.875000
         2224.9      93.230282     905.738281     -43.034469      38.148252      10.604139       7.846400       0.031806       2.602828       3.586453       6.267398      10.012068      69.049337      96.413000      27.124960      18.159638      17.527892      17.471335      17.462315      17.459076       0.110151       0.056021      10.207246      15.630925       9.310940       6.267398       2.858939      14.287299       2.608726       7.875000
         2225.4      93.278356     903.320313     -43.982237      37.319227       9.841245       7.844900       0.034519       2.607248       3.369966       6.008902       9.336167      49.599171      64.781849      27.573389      18.079362      17.449466      17.418853      17.415057      17.414086       0.110126       0.055996       9.456707      14.728216       8.592784       6.008902       2.591043      14.050921       2.623732       7.875000
         2225.9      93.277115     900.667969     -44.623766      34.025547      10.641923       7.845589       0.038828       2.603866       3.038189       6.206639      10.035402      34.228971      35.295175      26.036690      16.859857      16.270563      16.263359      16.265705      16.267950       0.110184       0.056054      10.244501      15.670934       9.345842       6.206639       2.795971      14.231739       2.613957       7.875000
         2226.4      93.269233     880.546875     -44.523374      30.611282      12.411251       7.850523       0.041275       2.592696       2.886573       6.859870      11.591321      27.467926      24.859924      25.191480      15.099841      14.569593      14.580763      14.589051      14.594713       0.110347       0.056217      11.985294      17.745135      11.008776       6.859870       3.472957      14.829080       2.591043       7.875000
         2226.9      93.299676     888.886719     -43.381384      27.514186      14.204891       7.856189       0.042009       2.582050       2.822145       7.482430      13.132583      29.546422      26.407242      25.562746      13.727685      13.242331      13.266365      13.280272      13.289441       0.110435       0.056305      13.749530      19.831084      12.692251       7.482430       4.118155      15.398372       2.571109       7.875000
         2227.4      93.257677     878.906250     -41.808567      24.541619      15.113474       7.854261       0.039696       2.577466       2.830749       7.750511      13.895944      28.897459      29.399513      27.320868      12.618739      12.168147      12.201705      12.220871      12.233450       0.110338       0.056208      14.642443      20.881210      13.544092       7.750511       4.395984      15.643515       2.561730       7.875000
         2227.9      93.291782     878.906250     -40.581600      23.829567      14.810119       7.849455       0.036362       2.585993       3.078687       7.251899      13.579264      28.560451      36.780196      28.922486      12.856110      12.390564      12.434816      12.460249      12.476899       0.110237       0.056107      14.342697      20.537759      13.260633       7.251899       3.879240      15.187565       2.575997       7.875000
