~Version Information
VERS .            2.00                          : CWLS Log ASCII Standard - Version 2.00
WRAP .            NO                            : One line per depth step
#
~Well Information
#MNEM.UNIT        DATA                          : DESCRIPTION
#----.----        ----                          : -----------
STRT .F             -3.6                        : Start
STOP .F           3345.9                        : Stop
STEP .F              0.5                        : Step increment
NULL .            -999.250                      : Null value
COMP .            ITB Oil, LLC.                 : Company
WELL .            Murphy #1                     : Well
FLD  .            South Johnson                 : Field
CTRY .            United States                 : State / Country
LOC  .            0375N 0330W NEc SW SW         : Location
LOC2 .            065407                        : Location 2
SRVC .            Weatherford                   : Service company
STAT .            USA / Illinois                : State
CNTY .            Clark                         : County
API  .                                          : API Number
LIC  .            065407                        : Licence Number
LATI .                                          : Latitude
LONG .                                          : Longitude
DATE .            10-Dec-2017                   : Logging Date
#
~Curve Information
#MNEM.UNIT        API CODES                     : CURVE DESCRIPTION
#----.----        ---------                     : -----------------
DEPT .F           00 001 00 00                  : Logged depth
CGXT .DEGF        30 660 01 00                  : MCG External Temperature
SMTU .LB          30 635 00 00                  : DST Uphole Tension
SPCG .MV          30 010 00 00                  : Spontaneous Potential
FEFE .OHMM        10 220 06 00                  : Shallow FE
NPRL .PERC        42 890 01 00                  : Limestone Neutron Por.
CLDC .IN          45 280 01 00                  : Density Caliper
DCOR .G/C3        42 356 01 00                  : Density Correction
DEN  .G/C3        42 350 01 00                  : Compensated Density
PDPE .B/E         45 358 01 00                  : PE
DPRL .PERC        45 890 10 00                  : Limestone Density Por.
XPOR .PERC        94 890 00 00                  : Crossplot Porosity
MNRL .OHMM        15 252 00 00                  : MMR MicroLog Normal
MINV .OHMM        15 250 00 00                  : MMR MicroLog Inverse
GGCE .GAPI        30 310 00 00                  : MCG BH Corrected Gamma
R30T .OHMM        07 120 44 00                  : Array Ind. Two Res 30
R40T .OHMM        07 120 44 00                  : Array Ind. Two Res 40
R60T .OHMM        07 120 44 00                  : Array Ind. Two Res 60
R85T .OHMM        07 120 44 00                  : Array Ind. Two Res 85
RTAT .OHMM        07 120 44 00                  : Array Ind. Two Res Rt
HVOL .F3          70 000 00 00                  : Hole Volume
AVOL .F3          70 000 00 00                  : Annular Volume
NPOR .PERC        42 890 04 00                  : Base Neutron Porosity
NPRS .PERC        42 890 03 00                  : Sandstone Neutron Por.
NPRD .PERC        42 890 02 00                  : Dolomite Neutron Por.
DPOR .PERC        45 890 13 00                  : Base Density Porosity
DPRS .PERC        45 890 12 00                  : Sandstone Density Por.
DPRD .PERC        45 890 11 00                  : Dolomite Density Por.
HDEN .G/C3        42 350 01 00                  : Vectar Processed Density
BIT  .IN          70 282 00 00                  : Bit size
#
~Parameter Information
#MNEM.UNIT        VALUE                         : DESCRIPTION
#----.----        -----                         : -----------
RNID .            5 Inch Main Pass              : Run ID
SON  .            2428-200147218                : Job Number
DREF .            KB                            : Depth reference
EREF .F               591.000                   : Elevation of depth reference
GL   .F               577.000                   : Ground elevation
DDRF .            Kelly Bushing                 : Drilling Depth Reference
RUN  .            One                           : Run number
TDD  .F              3344.000                   : TD (driller)
TDL  .F              3341.000                   : TD (logger)
BS   .IN                7.875                   : Bit size
TIMC .                                          : Time circulation ended
TIML .                                          : Time logger at bottom
UNIT .              13269                       : Equipment ID
BASE .            Flora                         : Equipment base location
ENG  .            Chad Skinner                  : Recording engineer
WIT  .            Doug Knierim                  : Witnessed by
CSGT .            Surface                       : Casing type
CSGS .IN                9.625                   : Casing size
CSGW .LB/FT            29.000                   : Casing weight
CSGD .F               184.000                   : Casing bottom (driller)
CSGL .F               182.000                   : Casing bottom (logger)
CSUP .F           -999999.000                   : Casing Stick Up GL
MUD  .            Chem Gel                      : Mud type
MUDS .            Flowline                      : Mud sample source
MUDD .LB/G              9.300                   : Mud density
MUDV .SEC              72.000                   : Mud viscosity
PH   .                  9.500                   : Mud pH
FL   .ML/30MIN          6.000                   : Mud fluid loss rate
RM   .OHMM              1.710                   : Mud resistivity
RMT  .DEGF             71.000                   : Mud sample temperature
RMF  .OHMM              1.280                   : Mud filtrate resistivity
RMFT .DEGF             71.000                   : Mud filtrate sample temperature
RMC  .OHMM              2.130                   : Mud cake resistivity
RMCT .DEGF             71.000                   : Mud cake sample temperature
RMBT .OHMM              1.240                   : Mud Resistivity at BHT
BHT  .DEGF             99.000                   : Bottom Hole Temperature
TMAX .DEGF             99.000                   : Max recorded temperature
#
~Other Information
-------------------------------------------------------------------------------------------------------------------------------------------------
WLS 17.03.9700
Toolstring: MCG, MMR, MDN (Dual Bowsprings), MPD (8" Profile Plate), MFE, MAI (Two 0.5" Standoffs)
All Intervals logged and scaled per client request.
Logging Speed as per client request.
Logging Matrix: Ran on Limestone 2.71 g/CC TD-1800, Sandstone 2.65 g/CC 1800-1750, Limestone 2.71 g/CC 1750-800, Sandstone 2.65 g/CC 800-Surface.
Annular hole volume from TD to surface casing with 5.5" production casing: 630 cu ft.     
Rig: LW #22
Crew: Dylan Jansen
Chlorides: 550
-------------------------------------------------------------------------------------------------------------------------------------------------
#
#          DEPT           CGXT           SMTU           SPCG           FEFE           NPRL           CLDC           DCOR           DEN            PDPE           DPRL           XPOR           MNRL           MINV           GGCE           R30T           R40T           R60T           R85T           RTAT           HVOL           AVOL           NPOR           NPRS           NPRD           DPOR           DPRS           DPRD           HDEN            BIT
#
~ASCII Log Data
# ...
         1787.4      91.025429     820.289063      19.793313      65.240217       4.715029       7.862073       0.025722       2.766591       5.147683      -3.309399       3.901877      30.148652      33.259696      24.222049      54.689786      53.875187      54.048105      54.236741      54.350480       0.110613       0.056483       4.428385       8.242536       3.703694      -3.309399      -7.066105       5.529908       2.766039       7.875000
         1787.9      90.919164     800.781250      20.255553      65.653864       4.996775       7.862639       0.024840       2.770672       5.223362      -3.548090       4.122272      61.506748      88.030424      22.722200      49.884595      49.015174      48.865763      48.884262      48.903862       0.110630       0.056500       4.705366       8.613900       3.974816      -3.548090      -7.313476       5.311639       2.773796       7.875000
         1788.4      90.980523     800.781250      21.117783      64.499384       5.312945       7.863263       0.026175       2.775141       5.173546      -3.809411       4.368960      80.774672     109.946551      22.997556      46.796134      45.866337      45.455897      45.357324      45.315572       0.110642       0.056512       5.016196       9.027928       4.278611      -3.809411      -7.584298       5.072678       2.773368       7.875000
         1788.9      90.997149     800.781250      22.050768      58.186661       5.830250       7.863286       0.027156       2.768759       4.981814      -3.436179       4.849962      31.904598      37.146960      24.516064      45.296483      44.304235      43.689141      43.519515      43.444161       0.110640       0.056510       5.524577       9.698923       4.774609      -3.436179      -7.197495       5.413975       2.781084       7.875000
         1789.4      90.925560     795.898438      23.249861      50.340003       6.624588       7.862997       0.030002       2.745849       4.843375      -2.096433       5.666238      32.848890      51.476296      34.532859      39.337060      38.408124      37.722470      37.524810      37.436853       0.110629       0.056499       6.305091      10.714840       5.533902      -2.096433      -5.809030       6.639091       2.772000       7.875000
         1789.9      90.953877     798.902344      24.796304      44.626320       8.200467       7.862387       0.034175       2.687731       4.597271       1.302300       7.378536      46.528666      73.004565      72.455033      32.122882      31.326841      30.678915      30.485625      30.399849       0.110611       0.056481       7.853849      12.659130       7.029407       1.302300      -2.286707       9.747024       2.733696       7.875000
         1790.4      91.022277     808.507813      26.497428      39.862064      11.592778       7.861902       0.036216       2.597012       4.104274       6.607503      10.881710      32.179131      40.925869     147.793442      29.363682      28.617526      27.970583      27.773508      27.686690       0.110609       0.056479      11.189424      16.565939      10.212869       6.607503       3.211412      14.598305       2.635844       7.875000
         1790.9      90.972929     786.183594      28.007052      35.810995      18.391579       7.862837       0.036716       2.502276       3.578003      12.147603      17.167026      13.071426      22.263041     243.514250      26.489705      25.814931      25.212474      25.027902      24.947605       0.110649       0.056519      17.878633      23.724899      16.531254      12.147603       8.952971      19.664386       2.475159       7.875000
         1791.4      91.040943     800.781250      29.056869      32.056895      27.011547       7.864994       0.035582       2.441368       3.223952      15.709481      23.608649      23.142643      75.296165     314.258902      21.006371      20.480634      20.005140      19.859923      19.797719       0.110707       0.056577      26.362693      32.344951      24.508718      15.709481      12.644371      22.921504       2.347332       7.875000
         1791.9      91.006210     800.781250      29.597898      27.498985      33.185042       7.866611       0.030591       2.436904       3.247497      15.970541      26.624289      20.604757      62.724985     332.468213      17.021727      16.611863      16.241808      16.130022      16.082946       0.110744       0.056614      32.439908      38.395834      30.207838      15.970541      12.914923      23.160226       2.346944       7.875000
         1792.4      90.967363     797.046875      29.952690      21.369283      33.657641       7.867431       0.026282       2.489267       3.511283      12.908339      25.529921       6.016738      10.043937     307.431377      14.586210      14.254972      13.961050      13.873929      13.837906       0.110765       0.056635      32.905374      38.940409      30.646062      12.908339       9.741370      20.360032       2.470793       7.875000
         1792.9      91.051660     800.781250      30.001630      16.452875      29.019283       7.867948       0.022223       2.567278       3.725205       8.346316      21.382530       6.769789      10.291236     267.412483      12.024466      11.771981      11.555974      11.493664      11.468377       0.110773       0.056643      28.338726      34.683684      26.378073       8.346316       5.013455      16.188343       2.614778       7.875000
         1793.4      91.071129     804.195313      29.985684      15.343353      23.702582       7.867760       0.021754       2.636478       3.777171       4.299507      17.119039       8.550971       9.967042     228.177768      10.768466      10.563671      10.399794      10.354356      10.336290       0.110765       0.056635      23.104338      29.736462      21.485847       4.299507       0.819489      12.487784       2.690264       7.875000
         1793.9      91.071511     825.195313      30.014316      15.811580      20.545422       7.867514       0.022736       2.671964       3.683603       2.224324      14.715656       8.272420      11.411632     193.144659      10.939039      10.753994      10.621288      10.586314      10.572691       0.110764       0.056634      19.996877      26.685384      18.580896       2.224324      -1.331155      10.590157       2.692129       7.875000
         1794.4      91.025520     804.046875      29.992403      16.103548      19.485111       7.867852       0.026050       2.682401       3.518035       1.613977      13.943529       8.021049      11.126241     168.550885      11.262922      11.096415      10.997945      10.973453      10.964101       0.110774       0.056645      18.953645      25.619138      17.603739       1.613977      -1.963697      10.032032       2.673321       7.875000
         1794.9      91.082882     834.187500      30.010404      16.159955      19.338845       7.868245       0.028162       2.679187       3.428877       1.801915      13.955753       8.372011      11.889145     154.528819      11.416487      11.271617      11.212260      11.199276      11.194955       0.110783       0.056653      18.809931      25.468123      17.468683       1.801915      -1.768924      10.203890       2.670182       7.875000
         1795.4      91.062545     820.312500      29.986695      16.135256      19.385958       7.868351       0.031818       2.681721       3.373487       1.653765      13.913545       8.610948      12.516240     150.423600      11.488851      11.365683      11.346873      11.347339      11.350138       0.110785       0.056655      18.856429      25.517720      17.512274       1.653765      -1.922462      10.068416       2.681174       7.875000
         1795.9      91.082580     820.312500      29.933174      16.070813      19.459737       7.868355       0.033493       2.681878       3.352998       1.644587      13.944780       9.390844      12.789397     148.410712      11.634194      11.530393      11.552033      11.567535      11.579312       0.110786       0.056656      18.929118      25.595268      17.580524       1.644587      -1.931974      10.060023       2.691674       7.875000
