~Version Information
VERS .            2.00                          : CWLS Log ASCII Standard - Version 2.00
WRAP .            NO                            : One line per depth step
#
~Well Information
#MNEM.UNIT        DATA                          : DESCRIPTION
#----.----        ----                          : -----------
STRT .F             -3.6                        : Start
STOP .F           3345.9                        : Stop
STEP .F              0.5                        : Step increment
NULL .            -999.250                      : Null value
COMP .            ITB Oil, LLC.                 : Company
WELL .            Murphy #1                     : Well
FLD  .            South Johnson                 : Field
CTRY .            United States                 : State / Country
LOC  .            0375N 0330W NEc SW SW         : Location
LOC2 .            065407                        : Location 2
SRVC .            Weatherford                   : Service company
STAT .            USA / Illinois                : State
CNTY .            Clark                         : County
API  .                                          : API Number
LIC  .            065407                        : Licence Number
LATI .                                          : Latitude
LONG .                                          : Longitude
DATE .            10-Dec-2017                   : Logging Date
#
~Curve Information
#MNEM.UNIT        API CODES                     : CURVE DESCRIPTION
#----.----        ---------                     : -----------------
DEPT .F           00 001 00 00                  : Logged depth
CGXT .DEGF        30 660 01 00                  : MCG External Temperature
SMTU .LB          30 635 00 00                  : DST Uphole Tension
SPCG .MV          30 010 00 00                  : Spontaneous Potential
FEFE .OHMM        10 220 06 00                  : Shallow FE
NPRL .PERC        42 890 01 00                  : Limestone Neutron Por.
CLDC .IN          45 280 01 00                  : Density Caliper
DCOR .G/C3        42 356 01 00                  : Density Correction
DEN  .G/C3        42 350 01 00                  : Compensated Density
PDPE .B/E         45 358 01 00                  : PE
DPRL .PERC        45 890 10 00                  : Limestone Density Por.
XPOR .PERC        94 890 00 00                  : Crossplot Porosity
MNRL .OHMM        15 252 00 00                  : MMR MicroLog Normal
MINV .OHMM        15 250 00 00                  : MMR MicroLog Inverse
GGCE .GAPI        30 310 00 00                  : MCG BH Corrected Gamma
R30T .OHMM        07 120 44 00                  : Array Ind. Two Res 30
R40T .OHMM        07 120 44 00                  : Array Ind. Two Res 40
R60T .OHMM        07 120 44 00                  : Array Ind. Two Res 60
R85T .OHMM        07 120 44 00                  : Array Ind. Two Res 85
RTAT .OHMM        07 120 44 00                  : Array Ind. Two Res Rt
HVOL .F3          70 000 00 00                  : Hole Volume
AVOL .F3          70 000 00 00                  : Annular Volume
NPOR .PERC        42 890 04 00                  : Base Neutron Porosity
NPRS .PERC        42 890 03 00                  : Sandstone Neutron Por.
NPRD .PERC        42 890 02 00                  : Dolomite Neutron Por.
DPOR .PERC        45 890 13 00                  : Base Density Porosity
DPRS .PERC        45 890 12 00                  : Sandstone Density Por.
DPRD .PERC        45 890 11 00                  : Dolomite Density Por.
HDEN .G/C3        42 350 01 00                  : Vectar Processed Density
BIT  .IN          70 282 00 00                  : Bit size
#
~Parameter Information
#MNEM.UNIT        VALUE                         : DESCRIPTION
#----.----        -----                         : -----------
RNID .            5 Inch Main Pass              : Run ID
SON  .            2428-200147218                : Job Number
DREF .            KB                            : Depth reference
EREF .F               591.000                   : Elevation of depth reference
GL   .F               577.000                   : Ground elevation
DDRF .            Kelly Bushing                 : Drilling Depth Reference
RUN  .            One                           : Run number
TDD  .F              3344.000                   : TD (driller)
TDL  .F              3341.000                   : TD (logger)
BS   .IN                7.875                   : Bit size
TIMC .                                          : Time circulation ended
TIML .                                          : Time logger at bottom
UNIT .              13269                       : Equipment ID
BASE .            Flora                         : Equipment base location
ENG  .            Chad Skinner                  : Recording engineer
WIT  .            Doug Knierim                  : Witnessed by
CSGT .            Surface                       : Casing type
CSGS .IN                9.625                   : Casing size
CSGW .LB/FT            29.000                   : Casing weight
CSGD .F               184.000                   : Casing bottom (driller)
CSGL .F               182.000                   : Casing bottom (logger)
CSUP .F           -999999.000                   : Casing Stick Up GL
MUD  .            Chem Gel                      : Mud type
MUDS .            Flowline                      : Mud sample source
MUDD .LB/G              9.300                   : Mud density
MUDV .SEC              72.000                   : Mud viscosity
PH   .                  9.500                   : Mud pH
FL   .ML/30MIN          6.000                   : Mud fluid loss rate
RM   .OHMM              1.710                   : Mud resistivity
RMT  .DEGF             71.000                   : Mud sample temperature
RMF  .OHMM              1.280                   : Mud filtrate resistivity
RMFT .DEGF             71.000                   : Mud filtrate sample temperature
RMC  .OHMM              2.130                   : Mud cake resistivity
RMCT .DEGF             71.000                   : Mud cake sample temperature
RMBT .OHMM              1.240                   : Mud Resistivity at BHT
BHT  .DEGF             99.000                   : Bottom Hole Temperature
TMAX .DEGF             99.000                   : Max recorded temperature
#
~Other Information
-------------------------------------------------------------------------------------------------------------------------------------------------
WLS 17.03.9700
Toolstring: MCG, MMR, MDN (Dual Bowsprings), MPD (8" Profile Plate), MFE, MAI (Two 0.5" Standoffs)
All Intervals logged and scaled per client request.
Logging Speed as per client request.
Logging Matrix: Ran on Limestone 2.71 g/CC TD-1800, Sandstone 2.65 g/CC 1800-1750, Limestone 2.71 g/CC 1750-800, Sandstone 2.65 g/CC 800-Surface.
Annular hole volume from TD to surface casing with 5.5" production casing: 630 cu ft.     
Rig: LW #22
Crew: Dylan Jansen
Chlorides: 550
-------------------------------------------------------------------------------------------------------------------------------------------------
#
#          DEPT           CGXT           SMTU           SPCG           FEFE           NPRL           CLDC           DCOR           DEN            PDPE           DPRL           XPOR           MNRL           MINV           GGCE           R30T           R40T           R60T           R85T           RTAT           HVOL           AVOL           NPOR           NPRS           NPRD           DPOR           DPRS           DPRD           HDEN            BIT
#
~ASCII Log Data
# ...
           32.4      82.066996    -999.250000    -999.250000    -999.250000      37.914119       0.523792      -0.781638       1.714650      12.099869      58.207579      49.098921       2.522863       2.954544      25.200445    -999.250000    -999.250000    -999.250000    -999.250000    -999.250000       0.000491       0.000000      48.534610      42.765110      34.560626      58.207579      56.687856      61.783402       1.710707      12.250000
           32.9      82.142341    -999.250000    -999.250000    -999.250000      39.423699       0.523784      -0.773784       1.738750      12.109619      56.798235      49.120813       2.499844       2.935299      25.176712    -999.250000    -999.250000    -999.250000    -999.250000    -999.250000       0.000491       0.000000      50.206394      44.046401      35.953581      56.798235      55.227260      60.494641       1.750395      12.250000
           33.4      82.176222    -999.250000    -999.250000    -999.250000      40.816527       0.523784      -0.765540       1.761746      11.984009      55.453458      49.120432       2.484811       2.928031      24.734650    -999.250000    -999.250000    -999.250000    -999.250000    -999.250000       0.000491       0.000000      51.741220      45.220849      37.240759      55.453458      53.833585      59.264927       1.771632      12.250000
           33.9      82.128915    -999.250000    -999.250000    -999.250000      40.916112       0.523803      -0.757727       1.780363      11.945937      54.364735      48.660738       2.484375       2.921554      23.714147    -999.250000    -999.250000    -999.250000    -999.250000    -999.250000       0.000491       0.000000      51.840797      45.294675      37.335449      54.364735      52.705269      58.269356       1.778917      12.250000
           34.4      82.148130    -999.250000    -999.250000    -999.250000      39.753774       0.523841      -0.750236       1.793076      11.914012      53.621276      47.795294       2.472608       2.915691      22.986602    -999.250000    -999.250000    -999.250000    -999.250000    -999.250000       0.000491       0.000000      50.549941      44.304647      36.263936      53.621276      51.934778      57.589511       1.791061      12.250000
           34.9      82.123787    -999.250000    -999.250000    -999.250000      37.741945       0.523849      -0.744736       1.795871      11.813979      53.457818      46.815544       2.466108       2.913720      23.139743    -999.250000    -999.250000    -999.250000    -999.250000    -999.250000       0.000491       0.000000      48.333048      42.609071      34.405123      53.457818      51.765374      57.440037       1.807221      12.250000
           35.4      82.189735    -999.250000    -999.250000    -999.250000      36.910554       0.523815      -0.740517       1.791963      11.767156      53.686396      46.548037       2.457008       2.906343      23.884758    -999.250000    -999.250000    -999.250000    -999.250000    -999.250000       0.000491       0.000000      47.413665      41.906690      33.638607      53.686396      52.002263      57.649056       1.807231      12.250000
           35.9      82.106437    -999.250000    -999.250000      33.376882      39.454739       0.523781      -0.735407       1.788452      11.700851      53.891696      47.786296       2.450108       2.884374      24.403773    -999.250000    -999.250000    -999.250000    -999.250000    -999.250000       0.000491       0.000000      50.173493      44.011115      36.002631      53.891696      52.215031      57.836793       1.784142      12.250000
           36.4      82.089651    -999.250000    -999.250000     190.978581      43.984362       0.523798      -0.729431       1.787815      11.709270      53.928965      49.828620       2.443745       2.871100      24.342110    -999.250000    -999.250000    -999.250000    -999.250000    -999.250000       0.000491       0.000000      55.067625      47.744746      40.219729      53.928965      52.253654      57.870874       1.766275      12.250000
           36.9      82.106231    -999.250000    -999.250000     544.766008      47.547260       0.523829      -0.722042       1.791947      11.774097      53.687294      51.302375       2.440997       2.863275      24.051933    -999.250000    -999.250000    -999.250000    -999.250000    -999.250000       0.000491       0.000000      58.884656      50.655285      43.548426      53.687294      52.003196      57.649878       1.782151      12.250000
           37.4      82.190821    -999.250000    -999.250000     942.802225      47.553572       0.523837      -0.713199       1.801415      11.747392      53.133608      51.050267       2.434733       2.835909      24.855308    -999.250000    -999.250000    -999.250000    -999.250000    -999.250000       0.000491       0.000000      58.877929      50.651700      43.560201      53.133608      51.429374      57.143565       1.813090      12.250000
           37.9      82.224242    -999.250000    -999.250000    1221.607365      44.121211       0.523835      -0.706850       1.810221      11.719198      52.618626      49.283555       2.435659       2.813683      26.901499    -999.250000    -999.250000    -999.250000    -999.250000    -999.250000       0.000491       0.000000      55.193128      47.846699      40.358679      52.618626      50.895669      56.672649       1.824116      12.250000
           38.4      82.132482    -999.250000    -999.250000    1310.738150      39.190757       0.523827      -0.704552       1.814815      11.686957      52.350006      46.950720       2.456981       2.835252      29.101498    -999.250000    -999.250000    -999.250000    -999.250000    -999.250000       0.000491       0.000000      49.864420      43.773202      35.764667      52.350006      50.617279      56.427011       1.812198      12.250000
           38.9      82.128950    -999.250000    -999.250000    1271.977370      34.236616       0.523836      -0.703954       1.821352      11.762156      51.967747      44.531760       2.484878       2.853643      30.193128    -999.250000    -999.250000    -999.250000    -999.250000    -999.250000       0.000491       0.000000      44.392001      39.555519      31.175539      51.967747      50.221119      56.077459       1.803128      12.250000
           39.4      82.168115    -999.250000    -999.250000    1230.811202      30.863992       0.523866      -0.702766       1.832964      11.890048      51.288658      42.672083       2.477847       2.829590      30.258039    -999.250000    -999.250000    -999.250000    -999.250000    -999.250000       0.000491       0.000000      40.583108      36.596547      28.070627      51.288658      49.517336      55.456475       1.820782      12.250000
           39.9      82.122986    -999.250000    -999.250000    1194.781057      29.097289       0.523847      -0.699612       1.850069      11.915428      50.288379      41.382015       2.446681       2.807336      28.724863    -999.250000    -999.250000    -999.250000    -999.250000    -999.250000       0.000491       0.000000      38.573037      35.030341      26.447305      50.288379      48.480685      54.541781       1.858280      12.250000
           40.4      82.185661    -999.250000    -999.250000    1145.220157      28.985937       0.523794      -0.694916       1.871725      11.969740      49.021952      40.723614       2.366548       2.732778      27.350625    -999.250000    -999.250000    -999.250000    -999.250000    -999.250000       0.000491       0.000000      38.456166      34.945361      26.344595      49.021952      47.168208      53.383711       1.881215      12.250000
           40.9      82.186653    -999.250000    -999.250000    1008.432672      29.382395       0.523737      -0.691575       1.890610      11.934840      47.917533      40.376514       2.346503       2.721735      26.713081    -999.250000    -999.250000    -999.250000    -999.250000    -999.250000       0.000491       0.000000      38.917324      35.310783      26.708372      47.917533      46.023625      52.373786       1.889159      12.250000
