~Version Information
VERS .            2.00                          : CWLS Log ASCII Standard - Version 2.00
WRAP .            NO                            : One line per depth step
#
~Well Information
#MNEM.UNIT        DATA                          : DESCRIPTION
#----.----        ----                          : -----------
STRT .F             -3.6                        : Start
STOP .F           3345.9                        : Stop
STEP .F              0.5                        : Step increment
NULL .            -999.250                      : Null value
COMP .            ITB Oil, LLC.                 : Company
WELL .            Murphy #1                     : Well
FLD  .            South Johnson                 : Field
CTRY .            United States                 : State / Country
LOC  .            0375N 0330W NEc SW SW         : Location
LOC2 .            065407                        : Location 2
SRVC .            Weatherford                   : Service company
STAT .            USA / Illinois                : State
CNTY .            Clark                         : County
API  .                                          : API Number
LIC  .            065407                        : Licence Number
LATI .                                          : Latitude
LONG .                                          : Longitude
DATE .            10-Dec-2017                   : Logging Date
#
~Curve Information
#MNEM.UNIT        API CODES                     : CURVE DESCRIPTION
#----.----        ---------                     : -----------------
DEPT .F           00 001 00 00                  : Logged depth
CGXT .DEGF        30 660 01 00                  : MCG External Temperature
SMTU .LB          30 635 00 00                  : DST Uphole Tension
SPCG .MV          30 010 00 00                  : Spontaneous Potential
FEFE .OHMM        10 220 06 00                  : Shallow FE
NPRL .PERC        42 890 01 00                  : Limestone Neutron Por.
CLDC .IN          45 280 01 00                  : Density Caliper
DCOR .G/C3        42 356 01 00                  : Density Correction
DEN  .G/C3        42 350 01 00                  : Compensated Density
PDPE .B/E         45 358 01 00                  : PE
DPRL .PERC        45 890 10 00                  : Limestone Density Por.
XPOR .PERC        94 890 00 00                  : Crossplot Porosity
MNRL .OHMM        15 252 00 00                  : MMR MicroLog Normal
MINV .OHMM        15 250 00 00                  : MMR MicroLog Inverse
GGCE .GAPI        30 310 00 00                  : MCG BH Corrected Gamma
R30T .OHMM        07 120 44 00                  : Array Ind. Two Res 30
R40T .OHMM        07 120 44 00                  : Array Ind. Two Res 40
R60T .OHMM        07 120 44 00                  : Array Ind. Two Res 60
R85T .OHMM        07 120 44 00                  : Array Ind. Two Res 85
RTAT .OHMM        07 120 44 00                  : Array Ind. Two Res Rt
HVOL .F3          70 000 00 00                  : Hole Volume
AVOL .F3          70 000 00 00                  : Annular Volume
NPOR .PERC        42 890 04 00                  : Base Neutron Porosity
NPRS .PERC        42 890 03 00                  : Sandstone Neutron Por.
NPRD .PERC        42 890 02 00                  : Dolomite Neutron Por.
DPOR .PERC        45 890 13 00                  : Base Density Porosity
DPRS .PERC        45 890 12 00                  : Sandstone Density Por.
DPRD .PERC        45 890 11 00                  : Dolomite Density Por.
HDEN .G/C3        42 350 01 00                  : Vectar Processed Density
BIT  .IN          70 282 00 00                  : Bit size
#
~Parameter Information
#MNEM.UNIT        VALUE                         : DESCRIPTION
#----.----        -----                         : -----------
RNID .            5 Inch Main Pass              : Run ID
SON  .            2428-200147218                : Job Number
DREF .            KB                            : Depth reference
EREF .F               591.000                   : Elevation of depth reference
GL   .F               577.000                   : Ground elevation
DDRF .            Kelly Bushing                 : Drilling Depth Reference
RUN  .            One                           : Run number
TDD  .F              3344.000                   : TD (driller)
TDL  .F              3341.000                   : TD (logger)
BS   .IN                7.875                   : Bit size
TIMC .                                          : Time circulation ended
TIML .                                          : Time logger at bottom
UNIT .              13269                       : Equipment ID
BASE .            Flora                         : Equipment base location
ENG  .            Chad Skinner                  : Recording engineer
WIT  .            Doug Knierim                  : Witnessed by
CSGT .            Surface                       : Casing type
CSGS .IN                9.625                   : Casing size
CSGW .LB/FT            29.000                   : Casing weight
CSGD .F               184.000                   : Casing bottom (driller)
CSGL .F               182.000                   : Casing bottom (logger)
CSUP .F           -999999.000                   : Casing Stick Up GL
MUD  .            Chem Gel                      : Mud type
MUDS .            Flowline                      : Mud sample source
MUDD .LB/G              9.300                   : Mud density
MUDV .SEC              72.000                   : Mud viscosity
PH   .                  9.500                   : Mud pH
FL   .ML/30MIN          6.000                   : Mud fluid loss rate
RM   .OHMM              1.710                   : Mud resistivity
RMT  .DEGF             71.000                   : Mud sample temperature
RMF  .OHMM              1.280                   : Mud filtrate resistivity
RMFT .DEGF             71.000                   : Mud filtrate sample temperature
RMC  .OHMM              2.130                   : Mud cake resistivity
RMCT .DEGF             71.000                   : Mud cake sample temperature
RMBT .OHMM              1.240                   : Mud Resistivity at BHT
BHT  .DEGF             99.000                   : Bottom Hole Temperature
TMAX .DEGF             99.000                   : Max recorded temperature
#
~Other Information
-------------------------------------------------------------------------------------------------------------------------------------------------
WLS 17.03.9700
Toolstring: MCG, MMR, MDN (Dual Bowsprings), MPD (8" Profile Plate), MFE, MAI (Two 0.5" Standoffs)
All Intervals logged and scaled per client request.
Logging Speed as per client request.
Logging Matrix: Ran on Limestone 2.71 g/CC TD-1800, Sandstone 2.65 g/CC 1800-1750, Limestone 2.71 g/CC 1750-800, Sandstone 2.65 g/CC 800-Surface.
Annular hole volume from TD to surface casing with 5.5" production casing: 630 cu ft.     
Rig: LW #22
Crew: Dylan Jansen
Chlorides: 550
-------------------------------------------------------------------------------------------------------------------------------------------------
#
#          DEPT           CGXT           SMTU           SPCG           FEFE           NPRL           CLDC           DCOR           DEN            PDPE           DPRL           XPOR           MNRL           MINV           GGCE           R30T           R40T           R60T           R85T           RTAT           HVOL           AVOL           NPOR           NPRS           NPRD           DPOR           DPRS           DPRD           HDEN            BIT
#
~ASCII Log Data
# ...
         3317.4    -999.250000    1161.476563     -46.466504     761.589749       1.307246       7.793361       0.013668       2.717028       4.667742      -0.410982       1.151285    -999.250000    -999.250000    -999.250000     654.192582     684.031909     560.959351     441.826628     405.159177       0.108682       0.054552       1.057304       3.606437       0.399549      -0.410982      -4.062290       8.180332       2.720059       7.875000
         3317.9    -999.250000    1166.992188     -46.593671     628.543661       1.696202       7.793274       0.015437       2.715035       4.415645      -0.294419       1.513185    -999.250000    -999.250000    -999.250000     561.020739     592.230539     483.332046     383.749699     352.978656       0.108678       0.054548       1.438484       4.148359       0.778918      -0.294419      -3.941488       8.286922       2.717507       7.875000
         3318.4    -999.250000    1164.468750     -46.669063     453.774801       2.028490       7.791630       0.017328       2.712688       4.248069      -0.157202       1.825169    -999.250000    -999.250000    -999.250000     468.829723     499.457936     406.210126     325.039359     299.698014       0.108584       0.054454       1.764135       4.610443       1.102858      -0.157202      -3.799282       8.412398       2.713961       7.875000
         3318.9    -999.250000    1162.144531     -46.907302     332.133093       2.215829       7.785714       0.019498       2.712502       4.227703      -0.146313       1.994696    -999.250000    -999.250000    -999.250000     410.655414     441.366169     358.108784     288.261038     266.191490       0.108408       0.054278       1.947733       4.870261       1.285366      -0.146313      -3.787997       8.422355       2.703658       7.875000
         3319.4    -999.250000    1169.585938     -47.160510     295.162351    -999.250000       7.778659       0.021979       2.717563       4.364568      -0.442274    -999.250000    -999.250000    -999.250000    -999.250000     376.276621     407.687379     330.212185     266.391394     246.118738       0.108173       0.054043    -999.250000    -999.250000    -999.250000      -0.442274      -4.094720       8.151717       2.708993       7.875000
         3319.9    -999.250000    1185.175781     -47.903604     305.208126    -999.250000       7.766129       0.021697       2.718605       4.570709      -0.503219    -999.250000    -999.250000    -999.250000    -999.250000     368.746277     402.387481     325.594990     262.624976     242.613994       0.107678       0.053548    -999.250000    -999.250000    -999.250000      -0.503219      -4.157882       8.095987       2.727658       7.875000
         3320.4    -999.250000    1179.078125     -48.462169     336.860752    -999.250000       7.738402       0.019555       2.716551       4.728327      -0.383096    -999.250000    -999.250000    -999.250000    -999.250000     401.985201     440.977476     356.760590     286.781338     264.687705       0.106922       0.052792    -999.250000    -999.250000    -999.250000      -0.383096      -4.033390       8.205832       2.730388       7.875000
         3320.9    -999.250000    1157.730469     -48.717747     395.340309    -999.250000       7.714250       0.014924       2.707495       4.833284       0.146468    -999.250000    -999.250000    -999.250000    -999.250000     447.874207     493.309660     399.376565     318.854911     293.746297       0.106387       0.052257    -999.250000    -999.250000    -999.250000       0.146468      -3.484569       8.690086       2.716154       7.875000
         3321.4    -999.250000    1162.109375     -49.343877     531.514092    -999.250000       7.705141       0.010915       2.696927       4.856476       0.764513    -999.250000    -999.250000    -999.250000    -999.250000     518.386042     572.758067     464.722926     367.559687     337.620717       0.106204       0.052074    -999.250000    -999.250000    -999.250000       0.764513      -2.844050       9.255250       2.687182       7.875000
         3321.9    -999.250000    1162.109375     -49.895292     704.520242    -999.250000       7.701968       0.007558       2.685177       4.920309       1.451609    -999.250000    -999.250000    -999.250000    -999.250000     600.686939     664.954050     541.564514     424.164869     388.056718       0.106138       0.052008    -999.250000    -999.250000    -999.250000       1.451609      -2.131969       9.883557       2.676274       7.875000
         3322.4    -999.250000    1175.296875     -50.248635     847.591130    -999.250000       7.700832       0.006083       2.677572       4.976131       1.896351    -999.250000    -999.250000    -999.250000    -999.250000     690.406444     765.165207     625.941626     485.735156     442.221585       0.106111       0.051981    -999.250000    -999.250000    -999.250000       1.896351      -1.671054      10.290246       2.678521       7.875000
         3322.9    -999.250000    1175.804688     -50.110403     960.270306    -999.250000       7.700162       0.008073       2.678386       4.962814       1.848788    -999.250000    -999.250000    -999.250000    -999.250000     783.368173     869.021103     714.142695     550.965197     499.192621       0.106096       0.051966    -999.250000    -999.250000    -999.250000       1.848788      -1.720347      10.246753       2.678032       7.875000
         3323.4    -999.250000    1152.343750     -50.240152    1069.894888    -999.250000       7.699848       0.010195       2.679706       4.939103       1.771575    -999.250000    -999.250000    -999.250000    -999.250000     852.354283     946.337393     779.994953     599.689089     541.041006       0.106088       0.051958    -999.250000    -999.250000    -999.250000       1.771575      -1.800368      10.176145       2.678463       7.875000
         3323.9    -999.250000    1158.433594     -50.069082    1199.660425    -999.250000       7.699605       0.014436       2.688484       4.873823       1.258226    -999.250000    -999.250000    -999.250000    -999.250000     899.477952     998.966556     824.518172     632.719848     569.027500       0.106082       0.051952    -999.250000    -999.250000    -999.250000       1.258226      -2.332384       9.706720       2.678063       7.875000
         3324.4    -999.250000    1154.578125     -49.757508    1279.983837    -999.250000       7.699475       0.017708       2.696801       4.822365       0.771880    -999.250000    -999.250000    -999.250000    -999.250000     922.723052    1024.936511     845.110592     647.078502     581.025633       0.106080       0.051950    -999.250000    -999.250000    -999.250000       0.771880      -2.836415       9.261986       2.694389       7.875000
         3324.9    -999.250000    1152.343750     -49.182924    1228.787545    -999.250000       7.699462       0.020904       2.705928       4.723751       0.238104    -999.250000    -999.250000    -999.250000    -999.250000     904.491451    1004.772721     825.645964     630.146773     566.020788       0.106080       0.051950    -999.250000    -999.250000    -999.250000       0.238104      -3.389602       8.773881       2.716534       7.875000
         3325.4    -999.250000    1168.343750     -48.809762    1063.971721    -999.250000       7.699479       0.020015       2.699984       4.611151       0.585746    -999.250000    -999.250000    -999.250000    -999.250000     828.202018     920.235870     751.550598     571.911282     514.762424       0.106080       0.051950    -999.250000    -999.250000    -999.250000       0.585746      -3.029318       9.091779       2.721969       7.875000
         3325.9    -999.250000    1175.082031     -48.616225     840.762290    -999.250000    -999.250000       0.013775       2.673504       4.575535       2.134269    -999.250000    -999.250000    -999.250000    -999.250000     726.350950     806.944755     654.021131     498.390068     450.228589    -999.250000    -999.250000    -999.250000    -999.250000    -999.250000       2.134269      -1.424485      10.507808       2.705107       7.875000
