~Version Information
VERS .            2.00                          : CWLS Log ASCII Standard - Version 2.00
WRAP .            NO                            : One line per depth step
#
~Well Information
#MNEM.UNIT        DATA                          : DESCRIPTION
#----.----        ----                          : -----------
STRT .F             -3.6                        : Start
STOP .F           3345.9                        : Stop
STEP .F              0.5                        : Step increment
NULL .            -999.250                      : Null value
COMP .            ITB Oil, LLC.                 : Company
WELL .            Murphy #1                     : Well
FLD  .            South Johnson                 : Field
CTRY .            United States                 : State / Country
LOC  .            0375N 0330W NEc SW SW         : Location
LOC2 .            065407                        : Location 2
SRVC .            Weatherford                   : Service company
STAT .            USA / Illinois                : State
CNTY .            Clark                         : County
API  .                                          : API Number
LIC  .            065407                        : Licence Number
LATI .                                          : Latitude
LONG .                                          : Longitude
DATE .            10-Dec-2017                   : Logging Date
#
~Curve Information
#MNEM.UNIT        API CODES                     : CURVE DESCRIPTION
#----.----        ---------                     : -----------------
DEPT .F           00 001 00 00                  : Logged depth
CGXT .DEGF        30 660 01 00                  : MCG External Temperature
SMTU .LB          30 635 00 00                  : DST Uphole Tension
SPCG .MV          30 010 00 00                  : Spontaneous Potential
FEFE .OHMM        10 220 06 00                  : Shallow FE
NPRL .PERC        42 890 01 00                  : Limestone Neutron Por.
CLDC .IN          45 280 01 00                  : Density Caliper
DCOR .G/C3        42 356 01 00                  : Density Correction
DEN  .G/C3        42 350 01 00                  : Compensated Density
PDPE .B/E         45 358 01 00                  : PE
DPRL .PERC        45 890 10 00                  : Limestone Density Por.
XPOR .PERC        94 890 00 00                  : Crossplot Porosity
MNRL .OHMM        15 252 00 00                  : MMR MicroLog Normal
MINV .OHMM        15 250 00 00                  : MMR MicroLog Inverse
GGCE .GAPI        30 310 00 00                  : MCG BH Corrected Gamma
R30T .OHMM        07 120 44 00                  : Array Ind. Two Res 30
R40T .OHMM        07 120 44 00                  : Array Ind. Two Res 40
R60T .OHMM        07 120 44 00                  : Array Ind. Two Res 60
R85T .OHMM        07 120 44 00                  : Array Ind. Two Res 85
RTAT .OHMM        07 120 44 00                  : Array Ind. Two Res Rt
HVOL .F3          70 000 00 00                  : Hole Volume
AVOL .F3          70 000 00 00                  : Annular Volume
NPOR .PERC        42 890 04 00                  : Base Neutron Porosity
NPRS .PERC        42 890 03 00                  : Sandstone Neutron Por.
NPRD .PERC        42 890 02 00                  : Dolomite Neutron Por.
DPOR .PERC        45 890 13 00                  : Base Density Porosity
DPRS .PERC        45 890 12 00                  : Sandstone Density Por.
DPRD .PERC        45 890 11 00                  : Dolomite Density Por.
HDEN .G/C3        42 350 01 00                  : Vectar Processed Density
BIT  .IN          70 282 00 00                  : Bit size
#
~Parameter Information
#MNEM.UNIT        VALUE                         : DESCRIPTION
#----.----        -----                         : -----------
RNID .            5 Inch Main Pass              : Run ID
SON  .            2428-200147218                : Job Number
DREF .            KB                            : Depth reference
EREF .F               591.000                   : Elevation of depth reference
GL   .F               577.000                   : Ground elevation
DDRF .            Kelly Bushing                 : Drilling Depth Reference
RUN  .            One                           : Run number
TDD  .F              3344.000                   : TD (driller)
TDL  .F              3341.000                   : TD (logger)
BS   .IN                7.875                   : Bit size
TIMC .                                          : Time circulation ended
TIML .                                          : Time logger at bottom
UNIT .              13269                       : Equipment ID
BASE .            Flora                         : Equipment base location
ENG  .            Chad Skinner                  : Recording engineer
WIT  .            Doug Knierim                  : Witnessed by
CSGT .            Surface                       : Casing type
CSGS .IN                9.625                   : Casing size
CSGW .LB/FT            29.000                   : Casing weight
CSGD .F               184.000                   : Casing bottom (driller)
CSGL .F               182.000                   : Casing bottom (logger)
CSUP .F           -999999.000                   : Casing Stick Up GL
MUD  .            Chem Gel                      : Mud type
MUDS .            Flowline                      : Mud sample source
MUDD .LB/G              9.300                   : Mud density
MUDV .SEC              72.000                   : Mud viscosity
PH   .                  9.500                   : Mud pH
FL   .ML/30MIN          6.000                   : Mud fluid loss rate
RM   .OHMM              1.710                   : Mud resistivity
RMT  .DEGF             71.000                   : Mud sample temperature
RMF  .OHMM              1.280                   : Mud filtrate resistivity
RMFT .DEGF             71.000                   : Mud filtrate sample temperature
RMC  .OHMM              2.130                   : Mud cake resistivity
RMCT .DEGF             71.000                   : Mud cake sample temperature
RMBT .OHMM              1.240                   : Mud Resistivity at BHT
BHT  .DEGF             99.000                   : Bottom Hole Temperature
TMAX .DEGF             99.000                   : Max recorded temperature
#
~Other Information
-------------------------------------------------------------------------------------------------------------------------------------------------
WLS 17.03.9700
Toolstring: MCG, MMR, MDN (Dual Bowsprings), MPD (8" Profile Plate), MFE, MAI (Two 0.5" Standoffs)
All Intervals logged and scaled per client request.
Logging Speed as per client request.
Logging Matrix: Ran on Limestone 2.71 g/CC TD-1800, Sandstone 2.65 g/CC 1800-1750, Limestone 2.71 g/CC 1750-800, Sandstone 2.65 g/CC 800-Surface.
Annular hole volume from TD to surface casing with 5.5" production casing: 630 cu ft.     
Rig: LW #22
Crew: Dylan Jansen
Chlorides: 550
-------------------------------------------------------------------------------------------------------------------------------------------------
#
#          DEPT           CGXT           SMTU           SPCG           FEFE           NPRL           CLDC           DCOR           DEN            PDPE           DPRL           XPOR           MNRL           MINV           GGCE           R30T           R40T           R60T           R85T           RTAT           HVOL           AVOL           NPOR           NPRS           NPRD           DPOR           DPRS           DPRD           HDEN            BIT
#
~ASCII Log Data
# ...
          473.4      83.143307     540.492187       4.141740      10.609666      27.207979      10.005603       0.163852       2.684954       4.123309       1.464689      17.552882       5.068818       4.663539     115.096162       6.970665       7.155875       7.474377       7.607907       7.660174       0.175819       0.121689      28.418204      33.278257      24.712704       1.464689      -2.118413       9.895517       2.714377       7.875000
          473.9      83.110035     541.992188       4.263946      10.807188      28.380780       9.785874       0.164562       2.701737       4.665570       0.483208      17.683361       7.385978       9.818655     106.586047       6.531216       6.698827       6.989065       7.110790       7.158139       0.172360       0.118230      29.622988      34.380054      25.789219       0.483208      -3.135585       8.998014       2.752495       7.875000
          474.4      83.203926     541.992188       4.654502      10.304589      29.703023       9.934683       0.166616       2.690004       4.522039       1.169378      18.606697       7.933737       9.451964     105.635613       6.128170       6.280764       6.545869       6.656635       6.699334       0.181083       0.126954      31.020404      35.598145      27.002765       1.169378      -2.424463       9.625474       2.729608       7.875000
          474.9      83.162654     537.203125       4.921108       8.993975      31.117365      10.207283       0.169269       2.650246       3.667980       3.494365      20.279811       4.714104       4.202652     114.946998       5.639125       5.776427       6.014913       6.113845       6.151576       0.187544       0.133414      32.540024      36.875981      28.300875       3.494365      -0.014931      11.751531       2.649267       7.875000
          475.4      83.152482     522.460938       5.137239       7.778201      32.798529      10.308430       0.171676       2.600759       2.975332       6.388358      22.320578       4.334468       4.208790     125.226221       4.990782       5.110329       5.317477       5.402612       5.434697       0.186346       0.132216      34.283125      38.379759      29.844589       6.388358       2.984298      14.397910       2.573196       7.875000
          475.9      83.156988     522.460938       5.061281       7.489697      34.152297      10.085201       0.171811       2.553922       2.684137       9.127375      24.136719       4.083737       4.125711     134.924655       4.670101       4.781062       4.972555       5.050486       5.079537       0.181192       0.127062      35.617187      39.577170      31.088387       9.127375       5.822916      16.902572       2.541442       7.875000
          476.4      83.114176     517.578125       4.942910       7.659431      34.560773      10.014580       0.173860       2.521714       2.606913      11.010903      25.138935       3.002183       4.288646     141.143681       4.701780       4.813207       5.004695       5.081931       5.110452       0.179748       0.125618      35.985272      39.934967      31.463859      11.010903       7.774936      18.624944       2.519642       7.875000
          476.9      83.077090     520.464844       4.945787       7.907008      34.089253      10.037365       0.191417       2.509668       2.658042      11.715306      25.220097       3.775386       4.489580     143.371428       4.778993       4.892528       5.086969       5.164821       5.193348       0.180782       0.126652      35.529092      39.521014      31.030549      11.715306       8.504953      19.269077       2.502416       7.875000
          477.4      83.090286     517.578125       4.964782       8.017315      33.486196      10.107981       0.222287       2.507687       2.688392      11.831194      24.986361       3.863240       4.671747     142.363432       4.804108       4.918844       5.114913       5.192977       5.221400       0.186956       0.132826      35.004007      38.993562      30.476196      11.831194       8.625055      19.375048       2.500645       7.875000
          477.9      83.124760     514.457031       4.986926       7.913010      33.780238      10.407837       0.254157       2.514270       2.676987      11.446204      24.959083       3.979464       4.300161     136.759834       4.745976       4.860081       5.055054       5.132438       5.160483       0.194414       0.140284      35.374902      39.247538      30.746748      11.446204       8.226066      19.023000       2.507147       7.875000
          478.4      83.060057     516.781250       4.881892       7.678285      34.665807      10.397116       0.268445       2.519691       2.584959      11.129198      25.239185       4.018711       4.265471     132.469558       4.634227       4.746295       4.938311       5.014507       5.042038       0.190148       0.136018      36.263100      40.018994      31.561037      11.129198       7.897533      18.733117       2.519681       7.875000
          478.9      83.026190     516.050781       4.752824       7.471709      35.017962      10.149208       0.257522       2.518164       2.531808      11.218485      25.443151       4.266330       4.972461     133.107944       4.509300       4.618727       4.807382       4.882497       4.909608       0.181517       0.127387      36.508417      40.329152      31.884578      11.218485       7.990067      18.814764       2.522697       7.875000
          479.4      83.076365     517.578125       4.612989       7.404703      34.601459       9.916073       0.236368       2.511493       2.539937      11.608588      25.415045       3.804536       4.064917     139.198279       4.456741       4.564912       4.753221       4.828743       4.856031       0.174187       0.120057      35.958573      39.969772      31.501320      11.608588       8.394354      19.171490       2.517274       7.875000
          479.9      83.063605     517.578125       4.338108       7.450233      33.922675       9.804990       0.220220       2.505735       2.617186      11.945338      25.240680       3.137124       4.193476     143.868289       4.446393       4.553833       4.743489       4.820444       4.848349       0.173663       0.119533      35.216835      39.381963      30.876870      11.945338       8.743350      19.479427       2.505938       7.875000
          480.4      83.104532     507.812500       4.102706       7.527814      33.567457       9.965443       0.218764       2.511053       2.734125      11.634333      24.939922       3.033139       4.398962     143.200126       4.466463       4.573317       4.765461       4.844731       4.873654       0.179011       0.124881      34.845637      39.072850      30.550218      11.634333       8.421036      19.195032       2.495591       7.875000
          480.9      83.124770     511.636719       3.731843       7.517010      33.901074       9.998459       0.224310       2.522250       2.897747      10.979560      24.815243       4.004323       4.257452     139.464682       4.428431       4.532799       4.724715       4.805551       4.835296       0.175551       0.121421      35.126694      39.361180      30.857162      10.979560       7.742453      18.596282       2.512122       7.875000
          481.4      83.123101     511.195313       3.500239       7.414434      34.556397       9.693178       0.220474       2.530886       2.995317      10.474521      24.906236       3.019381       4.145734     138.449568       4.399726       4.501319       4.693148       4.776047       4.806898       0.164714       0.110584      35.641663      39.929045      31.459985      10.474521       7.219049      18.134454       2.541227       7.875000
          481.9      83.029995     511.871094       3.254856       7.403619      35.613255       9.423069       0.200455       2.533124       3.048400      10.343649      25.346906       2.826901       3.824172     139.925136       4.444836       4.544783       4.739505       4.826330       4.859115       0.157186       0.103056      36.523663      40.841880      32.432621      10.343649       7.083418      18.014780       2.549626       7.875000
