~Version Information
VERS .            2.00                          : CWLS Log ASCII Standard - Version 2.00
WRAP .            NO                            : One line per depth step
#
~Well Information
#MNEM.UNIT        DATA                          : DESCRIPTION
#----.----        ----                          : -----------
STRT .F             -3.6                        : Start
STOP .F           3345.9                        : Stop
STEP .F              0.5                        : Step increment
NULL .            -999.250                      : Null value
COMP .            ITB Oil, LLC.                 : Company
WELL .            Murphy #1                     : Well
FLD  .            South Johnson                 : Field
CTRY .            United States                 : State / Country
LOC  .            0375N 0330W NEc SW SW         : Location
LOC2 .            065407                        : Location 2
SRVC .            Weatherford                   : Service company
STAT .            USA / Illinois                : State
CNTY .            Clark                         : County
API  .                                          : API Number
LIC  .            065407                        : Licence Number
LATI .                                          : Latitude
LONG .                                          : Longitude
DATE .            10-Dec-2017                   : Logging Date
#
~Curve Information
#MNEM.UNIT        API CODES                     : CURVE DESCRIPTION
#----.----        ---------                     : -----------------
DEPT .F           00 001 00 00                  : Logged depth
CGXT .DEGF        30 660 01 00                  : MCG External Temperature
SMTU .LB          30 635 00 00                  : DST Uphole Tension
SPCG .MV          30 010 00 00                  : Spontaneous Potential
FEFE .OHMM        10 220 06 00                  : Shallow FE
NPRL .PERC        42 890 01 00                  : Limestone Neutron Por.
CLDC .IN          45 280 01 00                  : Density Caliper
DCOR .G/C3        42 356 01 00                  : Density Correction
DEN  .G/C3        42 350 01 00                  : Compensated Density
PDPE .B/E         45 358 01 00                  : PE
DPRL .PERC        45 890 10 00                  : Limestone Density Por.
XPOR .PERC        94 890 00 00                  : Crossplot Porosity
MNRL .OHMM        15 252 00 00                  : MMR MicroLog Normal
MINV .OHMM        15 250 00 00                  : MMR MicroLog Inverse
GGCE .GAPI        30 310 00 00                  : MCG BH Corrected Gamma
R30T .OHMM        07 120 44 00                  : Array Ind. Two Res 30
R40T .OHMM        07 120 44 00                  : Array Ind. Two Res 40
R60T .OHMM        07 120 44 00                  : Array Ind. Two Res 60
R85T .OHMM        07 120 44 00                  : Array Ind. Two Res 85
RTAT .OHMM        07 120 44 00                  : Array Ind. Two Res Rt
HVOL .F3          70 000 00 00                  : Hole Volume
AVOL .F3          70 000 00 00                  : Annular Volume
NPOR .PERC        42 890 04 00                  : Base Neutron Porosity
NPRS .PERC        42 890 03 00                  : Sandstone Neutron Por.
NPRD .PERC        42 890 02 00                  : Dolomite Neutron Por.
DPOR .PERC        45 890 13 00                  : Base Density Porosity
DPRS .PERC        45 890 12 00                  : Sandstone Density Por.
DPRD .PERC        45 890 11 00                  : Dolomite Density Por.
HDEN .G/C3        42 350 01 00                  : Vectar Processed Density
BIT  .IN          70 282 00 00                  : Bit size
#
~Parameter Information
#MNEM.UNIT        VALUE                         : DESCRIPTION
#----.----        -----                         : -----------
RNID .            5 Inch Main Pass              : Run ID
SON  .            2428-200147218                : Job Number
DREF .            KB                            : Depth reference
EREF .F               591.000                   : Elevation of depth reference
GL   .F               577.000                   : Ground elevation
DDRF .            Kelly Bushing                 : Drilling Depth Reference
RUN  .            One                           : Run number
TDD  .F              3344.000                   : TD (driller)
TDL  .F              3341.000                   : TD (logger)
BS   .IN                7.875                   : Bit size
TIMC .                                          : Time circulation ended
TIML .                                          : Time logger at bottom
UNIT .              13269                       : Equipment ID
BASE .            Flora                         : Equipment base location
ENG  .            Chad Skinner                  : Recording engineer
WIT  .            Doug Knierim                  : Witnessed by
CSGT .            Surface                       : Casing type
CSGS .IN                9.625                   : Casing size
CSGW .LB/FT            29.000                   : Casing weight
CSGD .F               184.000                   : Casing bottom (driller)
CSGL .F               182.000                   : Casing bottom (logger)
CSUP .F           -999999.000                   : Casing Stick Up GL
MUD  .            Chem Gel                      : Mud type
MUDS .            Flowline                      : Mud sample source
MUDD .LB/G              9.300                   : Mud density
MUDV .SEC              72.000                   : Mud viscosity
PH   .                  9.500                   : Mud pH
FL   .ML/30MIN          6.000                   : Mud fluid loss rate
RM   .OHMM              1.710                   : Mud resistivity
RMT  .DEGF             71.000                   : Mud sample temperature
RMF  .OHMM              1.280                   : Mud filtrate resistivity
RMFT .DEGF             71.000                   : Mud filtrate sample temperature
RMC  .OHMM              2.130                   : Mud cake resistivity
RMCT .DEGF             71.000                   : Mud cake sample temperature
RMBT .OHMM              1.240                   : Mud Resistivity at BHT
BHT  .DEGF             99.000                   : Bottom Hole Temperature
TMAX .DEGF             99.000                   : Max recorded temperature
#
~Other Information
-------------------------------------------------------------------------------------------------------------------------------------------------
WLS 17.03.9700
Toolstring: MCG, MMR, MDN (Dual Bowsprings), MPD (8" Profile Plate), MFE, MAI (Two 0.5" Standoffs)
All Intervals logged and scaled per client request.
Logging Speed as per client request.
Logging Matrix: Ran on Limestone 2.71 g/CC TD-1800, Sandstone 2.65 g/CC 1800-1750, Limestone 2.71 g/CC 1750-800, Sandstone 2.65 g/CC 800-Surface.
Annular hole volume from TD to surface casing with 5.5" production casing: 630 cu ft.     
Rig: LW #22
Crew: Dylan Jansen
Chlorides: 550
-------------------------------------------------------------------------------------------------------------------------------------------------
#
#          DEPT           CGXT           SMTU           SPCG           FEFE           NPRL           CLDC           DCOR           DEN            PDPE           DPRL           XPOR           MNRL           MINV           GGCE           R30T           R40T           R60T           R85T           RTAT           HVOL           AVOL           NPOR           NPRS           NPRD           DPOR           DPRS           DPRD           HDEN            BIT
#
~ASCII Log Data
# ...
         2003.4      92.259263     878.906250     -59.928841     123.299071       5.903823       7.835577       0.021694       2.638289       4.499184       4.193606       5.715534      82.154597     103.218923      26.327909      55.398420      52.051923      50.642226      50.306287      50.146931       0.109847       0.055717       5.584480       9.794752       4.845212       4.193606       0.709738      12.390945       2.641137       7.875000
         2003.9      92.204433     909.230469     -58.729037     127.836856       5.289157       7.834273       0.022879       2.656200       4.543656       3.146223       5.060320     116.276950     166.048748      29.700018      61.212572      57.676415      56.117821      55.736722      55.552425       0.109825       0.055695       4.979918       8.993318       4.255176       3.146223      -0.375732      11.433177       2.662484       7.875000
         2004.4      92.207323     886.117187     -57.778175     141.637757       4.619392       7.834002       0.022045       2.667591       4.704229       2.480047       4.397649     130.828598     199.947103      32.628935      69.083581      65.257602      63.449406      62.989924      62.762045       0.109816       0.055686       4.321968       8.110566       3.610664       2.480047      -1.066133      10.824000       2.674450       7.875000
         2004.9      92.225165     900.156250     -57.179096     165.202707       3.937152       7.833615       0.019300       2.671033       4.913004       2.278788       3.770035     163.747310     273.033345      32.795232      80.390474      76.094517      73.875597      73.283698      72.981453       0.109807       0.055677       3.652071       7.202786       2.952695       2.278788      -1.274711      10.639961       2.677178       7.875000
         2005.4      92.271390     865.054688     -56.757834     188.328985       3.334818       7.833387       0.016028       2.668337       5.065352       2.436451       3.246148     169.974823     269.441592      31.293727      92.156902      87.359187      84.594788      83.810344      83.395586       0.109798       0.055669       3.060672       6.393253       2.370411       2.436451      -1.111315      10.784134       2.672492       7.875000
         2005.9      92.273430     854.492188     -56.362105     191.922873       2.853958       7.832915       0.013215       2.662855       5.057415       2.757036       2.844564     223.141103     350.948434      29.329047      97.255058      92.263614      89.039595      88.063405      87.528897       0.109784       0.055654       2.588526       5.743008       1.904873       2.757036      -0.779072      11.077290       2.661975       7.875000
         2006.4      92.231644     869.000000     -56.555876     175.716952       2.597172       7.832439       0.009337       2.654426       4.939729       3.249955       2.845961     191.173095     294.007865      31.723538     102.212110      96.958906      93.147225      91.909907      91.206659       0.109774       0.055644       2.336354       5.393767       1.655923       3.249955      -0.268228      11.528034       2.652857       7.875000
         2006.9      92.174751     882.875000     -57.175177     164.437729       2.500504       7.832294       0.005111       2.647479       4.843715       3.656210       2.944962      83.306390     139.126204      37.125430     109.336477     103.631073      99.032744      97.442187      96.507385       0.109771       0.055641       2.241381       5.261799       1.562118       3.656210       0.152800      11.899529       2.643817       7.875000
         2007.4      92.233846     859.914063     -58.112284     190.451207       2.445054       7.832226       0.001399       2.645002       4.871400       3.801078       2.967616     153.266058     245.623520      41.306302     119.414638     112.982988     107.308823     105.230352     103.971267       0.109769       0.055639       2.186915       5.185519       1.508209       3.801078       0.302936      12.032002       2.641017       7.875000
         2007.9      92.266343     864.644531     -59.334255     262.129723       2.290676       7.832121       0.000110       2.648164       4.950589       3.616153       2.793140     146.971500     232.028791      45.423884     139.001891     131.187573     123.797792     120.967239     119.212346       0.109766       0.055636       2.035378       4.972444       1.357996       3.616153       0.111286      11.862899       2.643324       7.875000
         2008.4      92.252706     922.156250     -60.312741     345.862704       1.995830       7.832098       0.003299       2.658838       5.008144       2.991904       2.357563     225.143800     323.289156      46.096945     163.008461     153.345326     143.746960     139.951776     137.562503       0.109767       0.055637       1.745995       4.564788       1.070977       2.991904      -0.535663      11.292062       2.652617       7.875000
         2008.9      92.248082     897.730469     -61.317289     394.964779       1.691693       7.832136       0.008138       2.669796       5.035360       2.351105       1.919206     284.374956     385.814512      43.710308     175.659827     164.645870     153.371859     148.831020     145.952381       0.109767       0.055637       1.447496       4.143820       0.774832       2.351105      -1.199764      10.706090       2.674038       7.875000
         2009.4      92.263970     859.375000     -62.405947     396.722766       1.530987       7.832074       0.012332       2.676601       4.987513       1.953146       1.672162     263.930049     322.280371      40.062854     177.427500     165.644098     153.429976     148.484409     145.355656       0.109764       0.055634       1.289747       3.921098       0.618298       1.953146      -1.612195      10.342181       2.689433       7.875000
         2009.9      92.341915     853.031250     -63.781226     366.036259       1.554014       7.831910       0.013684       2.673816       4.908636       2.116041       1.743881     248.654561     321.122002      35.195037     165.285384     153.677835     141.666765     136.831574     133.801513       0.109758       0.055628       1.312159       3.953221       0.640765       2.116041      -1.443375      10.491140       2.686233       7.875000
         2010.4      92.259288     869.140625     -65.447945     326.655240       1.716805       7.831447       0.012084       2.661840       4.838010       2.816348       2.105365     255.820225     305.893473      33.569644     146.006004     135.225019     124.214846     119.851831     117.164704       0.109715       0.055585       1.471209       4.179395       0.799430       2.816348      -0.717603      11.131527       2.664641       7.875000
         2010.9      92.219728     864.257813     -67.257805     292.172634       1.965527       7.827038       0.010030       2.646500       4.822530       3.713478       2.617396     200.904382     218.829052      35.425222     128.845944     118.898742     108.955433     105.104538     102.786716       0.109555       0.055425       1.713901       4.523644       1.041613       3.713478       0.212150      11.951897       2.639557       7.875000
         2011.4      92.312338     853.312500     -68.983762     257.861582       2.379958       7.819421       0.009567       2.631376       4.844162       4.597901       3.257568     161.334076     209.185536      37.631060     111.201686     102.293309      93.625548      90.361955      88.450843       0.109367       0.055237       2.118753       5.092092       1.444243       4.597901       1.128734      12.760648       2.626871       7.875000
         2011.9      92.309078     864.257813     -70.729353     230.193729       3.071259       7.815330       0.012697       2.621932       4.818052       5.150175       3.939861     168.942556     169.818476      38.098522      95.141003      87.287872      79.869380      77.160212      75.620082       0.109280       0.055150       2.795196       6.029629       2.113999       5.150175       1.701090      13.265667       2.619856       7.875000
